,community_1,community_2,community_3,community_4,community_5,community_6,country_code,latitude,longitude,place_name
1,0,0,0,0,0,0,CO,10.39972,-75.51444,Cartagena
2,1,9,193,18,0,0,US,26.17231,-80.13199,Oakland Park
3,1,11,200,36,0,0,US,38.77144,-90.37095,Hazelwood
4,1,9,193,19,0,0,US,26.05231,-80.14393,Dania Beach
5,1,13,221,112,3,0,US,36.15398,-95.99277,Tulsa
6,1,12,215,112,3,0,US,35.68698,-105.9378,Santa Fe
7,1,17,291,148,3,0,US,37.5841,-122.36608,Burlingame
8,1,17,301,148,3,0,US,36.60024,-121.89468,Monterey
9,1,18,307,148,3,0,US,35.18944,-114.05301,Kingman
10,1,17,292,148,3,0,US,37.77493,-122.41942,San Francisco
11,1,17,292,148,3,0,US,37.75018,-122.43369,Noe Valley
12,1,17,301,148,3,0,US,36.61774,-121.91662,Pacific Grove
13,1,15,277,121,3,0,US,40.9126,-73.83708,Mount Vernon
14,1,15,279,134,3,0,US,42.08343,-71.39673,Franklin
15,1,15,279,138,3,0,US,41.70567,-70.22863,Yarmouth
16,1,15,279,138,3,0,US,41.70011,-70.29947,Barnstable
17,1,15,277,123,3,0,US,41.92704,-73.99736,Kingston
18,1,15,279,136,3,0,US,42.85842,-70.93005,Amesbury
19,1,12,204,107,3,0,US,40.71884,-111.88827,South Salt Lake
20,1,12,204,107,3,0,US,40.66689,-111.88799,Murray
21,2,26,447,161,3,0,NL,51.4425,3.57361,Vlissingen
22,2,26,448,161,3,0,NL,51.92333,4.25,Maassluis
23,2,26,447,161,3,0,NL,51.5,3.61389,Middelburg
24,1,14,250,112,3,0,US,33.77483,-84.29631,Decatur
25,1,14,250,112,3,0,US,33.67955,-84.43937,East Point
26,1,13,223,112,3,0,US,30.26715,-97.74306,Austin
27,1,14,250,112,3,0,US,33.75483,-84.26742,Belvedere Park
28,1,14,250,112,3,0,US,33.79038,-84.30603,North Decatur
29,1,15,279,134,3,0,US,42.11316,-70.81199,Hanover
30,1,15,279,140,3,0,US,41.43982,-72.01424,Ledyard
31,1,14,250,112,3,0,US,33.81677,-84.31326,North Druid Hills
32,1,24,391,153,3,0,MX,20.6274,-87.07987,Playa del Carmen
33,1,17,293,148,3,0,US,37.33939,-121.89496,San Jose
34,1,17,293,148,3,0,US,37.35411,-121.95524,Santa Clara
35,1,18,308,148,3,0,US,34.02112,-118.39647,Culver City
36,1,20,339,148,3,0,CA,49.24966,-123.11934,Vancouver
37,1,12,204,107,3,0,US,40.76078,-111.89105,Salt Lake City
38,1,20,339,148,3,0,CA,49.28333,-123.13333,West End
39,1,15,279,140,3,0,US,41.35565,-72.09952,New London
40,1,20,339,148,3,0,CA,49.31636,-123.06934,North Vancouver
41,2,28,550,171,3,0,FR,48.96203,2.53253,Villepinte
42,2,28,568,184,3,0,FR,43.70313,7.26608,Nice
43,2,28,568,184,3,0,FR,43.55135,7.01275,Cannes
44,2,28,550,171,3,0,FR,48.98333,2.61667,Mitry-Mory
45,1,15,277,124,3,0,US,40.78343,-73.96625,Manhattan
46,1,15,277,124,3,0,US,40.7375,-73.98611,Gramercy Park
47,1,15,277,124,3,0,US,40.76121,-73.86514,East Elmhurst
48,1,18,320,148,3,0,US,36.09719,-115.14666,Paradise
49,1,15,279,135,3,0,US,41.7001,-71.41617,Warwick
50,1,20,341,148,3,0,US,47.61038,-122.20068,Bellevue
51,1,15,279,134,3,0,US,42.3751,-71.10561,Cambridge
52,1,15,279,134,3,0,US,42.39176,-71.03283,Chelsea
53,1,15,279,134,3,0,US,42.30982,-71.12033,Jamaica Plain
54,2,32,723,226,3,0,ES,41.37397,2.14377,La Bordeta
55,2,32,723,226,3,0,ES,41.3975,2.14301,Sant Gervasi - Galvany
56,2,32,723,226,3,0,ES,41.36,2.13986,la Marina de Port
57,2,32,723,226,3,0,ES,41.35967,2.10028,L'Hospitalet de Llobregat
58,1,18,321,148,3,0,US,33.15809,-117.35059,Carlsbad
59,2,26,455,161,3,0,BE,50.88365,4.47298,Zaventem
60,2,30,618,184,3,0,GB,51.48755,-0.16936,Chelsea
61,1,23,375,153,3,0,US,38.91206,-77.02137,Shaw
62,1,14,248,112,3,0,US,35.60095,-82.55402,Asheville
63,1,23,376,153,3,0,US,39.14344,-77.20137,Gaithersburg
64,1,23,384,153,3,0,US,39.32288,-76.72803,Woodlawn
65,1,23,376,153,3,0,US,39.01817,-77.20859,Potomac
66,1,17,293,148,3,0,US,37.44188,-122.14302,Palo Alto
67,1,23,377,153,3,0,US,39.09928,-76.84831,Laurel
68,1,11,201,60,0,0,US,41.88407,-87.6333,Chicago Loop
69,1,18,308,148,3,0,US,33.99084,-118.46008,Venice
70,1,23,378,153,3,0,US,39.11566,-77.5636,Leesburg
71,1,17,291,148,3,0,US,37.48522,-122.23635,Redwood City
72,1,15,275,112,3,0,US,42.93173,-76.56605,Auburn
73,1,18,321,148,3,0,US,33.03699,-117.29198,Encinitas
74,1,23,378,153,3,0,US,38.96872,-77.3411,Reston
75,1,11,201,60,0,0,US,41.84364,-87.71255,South Lawndale
76,1,15,279,136,3,0,US,42.57926,-71.43784,Westford
77,1,17,293,148,3,0,US,37.22661,-121.97468,Los Gatos
78,1,23,378,153,3,0,US,39.04372,-77.48749,Ashburn
79,1,23,379,153,3,0,US,39.3726,-77.43526,Ballenger Creek
80,1,18,312,148,3,0,US,33.61252,-117.71283,Laguna Hills
81,1,23,384,153,3,0,US,39.24038,-76.83942,Columbia
82,1,22,365,148,3,0,US,43.14756,-77.55055,Brighton
83,1,23,385,153,3,0,US,38.36067,-75.59937,Salisbury
84,1,23,376,153,3,0,US,38.98067,-77.10026,Bethesda
85,1,23,376,153,3,0,US,39.05761,-76.93581,Calverton
86,1,23,375,153,3,0,US,38.88101,-77.10428,Arlington
87,1,23,384,153,3,0,US,39.29038,-76.61219,Baltimore
88,1,15,276,115,3,0,US,39.9512,-75.15923,Center City
89,1,23,375,153,3,0,US,38.89511,-77.03637,"Washington, D.C."
90,1,23,378,153,3,0,US,38.93428,-77.17748,McLean
91,1,17,293,148,3,0,US,37.45383,-122.18219,Menlo Park
92,1,23,376,153,3,0,US,39.084,-77.15276,Rockville
93,2,30,618,184,3,0,GB,51.36217,-0.09421,South Croydon
94,2,30,618,184,3,0,GB,51.52718,-0.06109,Bethnal Green
95,1,15,277,124,3,0,US,40.68149,-73.83652,Queens
96,2,30,618,184,3,0,GB,51.4439,-0.1854,Earlsfield
97,2,28,569,184,3,0,FR,46.19439,6.23775,Annemasse
98,2,30,630,184,3,0,GB,51.48,-3.18,Cardiff
99,0,2,46,0,0,0,BR,-23.51056,-46.87611,Barueri
100,0,2,46,0,0,0,BR,-23.62611,-46.79167,Taboão da Serra
101,0,2,48,0,0,0,BR,-22.90556,-47.06083,Campinas
102,0,2,48,0,0,0,BR,-22.73917,-47.33139,Americana
103,0,2,49,0,0,0,BR,-21.95472,-47.99667,Ibaté
104,0,2,50,0,0,0,BR,-20.42278,-49.97278,Votuporanga
105,0,2,50,0,0,0,BR,-20.81972,-49.37944,São José do Rio Preto
106,0,2,50,0,0,0,BR,-21.13778,-48.97278,Catanduva
107,0,2,48,0,0,0,BR,-23.36417,-46.74056,Caieiras
108,0,2,48,0,0,0,BR,-23.35611,-46.87694,Cajamar
109,0,2,48,0,0,0,BR,-22.75361,-47.41361,Santa Bárbara d'Oeste
110,0,2,50,0,0,0,BR,-20.53389,-49.31417,Nova Granada
111,0,2,48,0,0,0,BR,-22.41139,-47.56139,Rio Claro
112,0,2,49,0,0,0,BR,-21.60333,-48.36583,Matão
113,0,2,48,0,0,0,BR,-22.85833,-47.22,Hortolândia
114,0,2,50,0,0,0,BR,-20.62639,-49.64917,Tanabi
115,0,2,49,0,0,0,BR,-21.79444,-48.17556,Araraquara
116,0,2,48,0,0,0,BR,-23.18639,-46.88417,Jundiaí
117,0,2,48,0,0,0,BR,-22.48194,-47.45667,Cordeirópolis
118,0,3,87,9,0,0,BR,-29.35622,-50.81357,Canela
119,0,3,91,15,0,0,BR,-26.99056,-48.63472,Balneário Camboriú
120,0,3,93,15,0,0,BR,-28.24,-48.67028,Imbituba
121,0,3,87,9,0,0,BR,-29.37639,-51.11444,Nova Petrópolis
122,0,3,87,10,0,0,BR,-29.64833,-51.17389,Estância Velha
123,0,3,94,15,0,0,BR,-25.42778,-49.27306,Curitiba
124,0,3,94,15,0,0,BR,-25.5302,-49.20836,São José dos Pinhais
125,0,3,87,10,0,0,BR,-29.67833,-51.13056,Novo Hamburgo
126,0,2,56,0,0,0,BR,-24.4875,-47.84361,Registro
127,0,2,46,0,0,0,BR,-23.5325,-46.79167,Osasco
128,0,2,57,0,0,0,BR,-23.99306,-46.25639,Guarujá
129,0,2,46,0,0,0,BR,-23.64889,-46.85222,Embu
130,0,2,47,0,0,0,BR,-23.69389,-46.565,São Bernardo do Campo
131,0,2,46,0,0,0,BR,-23.52272,-46.835,Carapicuíba
132,0,2,54,0,0,0,BR,-23.26417,-47.29917,Itu
133,0,2,73,0,0,0,BR,-22.80389,-43.37222,São João de Meriti
134,0,2,73,0,0,0,BR,-22.8075,-43.41389,Nilópolis
135,0,2,58,0,0,0,BR,-22.84694,-45.22972,Aparecida
136,0,2,73,0,0,0,BR,-22.71611,-43.55528,Queimados
137,0,2,58,0,0,0,BR,-23.02639,-45.55528,Taubaté
138,0,2,58,0,0,0,BR,-23.17944,-45.88694,São José dos Campos
139,2,30,633,184,3,0,IE,53.33306,-6.24889,Dublin
140,2,30,633,184,3,0,IE,53.45972,-6.21806,Swords
141,2,30,634,184,3,0,GB,54.59682,-5.92541,Belfast
142,2,30,633,184,3,0,IE,54.0,-6.41667,Dundalk
143,1,17,302,148,3,0,US,36.74773,-119.77237,Fresno
144,1,20,342,148,3,0,US,46.60207,-120.5059,Yakima
145,1,20,347,148,3,0,US,44.05817,-121.31531,Bend
146,1,20,347,148,3,0,US,44.27262,-121.17392,Redmond
147,1,17,291,148,3,0,US,37.59855,-122.38719,Millbrae
148,1,18,320,148,3,0,US,36.19886,-115.1175,North Las Vegas
149,1,22,362,148,3,0,CA,43.69053,-79.32794,East York
150,1,18,320,148,3,0,US,36.12997,-115.11889,Winchester
151,1,18,320,148,3,0,US,36.17497,-115.13722,Las Vegas
152,1,15,279,134,3,0,US,42.37093,-71.18283,Watertown
153,1,18,320,148,3,0,US,36.10803,-115.245,Spring Valley
154,1,17,293,148,3,0,US,37.323,-122.03218,Cupertino
155,1,17,292,148,3,0,US,37.7966,-122.40858,Chinatown
156,1,18,308,148,3,0,US,34.18084,-118.30897,Burbank
157,1,23,376,153,3,0,US,38.96372,-76.99081,Chillum
158,1,23,375,153,3,0,US,38.9215,-77.0422,Adams Morgan
159,1,18,309,148,3,0,US,33.88835,-118.30896,Gardena
160,1,18,322,148,3,0,US,35.11859,-120.59073,Arroyo Grande
161,1,17,292,148,3,0,US,37.97353,-122.53109,San Rafael
162,1,17,292,148,3,0,US,37.76521,-122.24164,Alameda
163,1,19,327,148,3,0,US,33.59754,-112.27182,Sun City
164,1,17,302,148,3,0,US,36.57078,-119.61208,Selma
165,1,18,312,148,3,0,US,33.87224,-117.87034,Placentia
166,1,17,292,148,3,0,US,37.70577,-122.46192,Daly City
167,1,17,294,148,3,0,US,37.70215,-121.93579,Dublin
168,1,17,303,148,3,0,US,37.73987,-121.42618,Tracy
169,1,18,314,148,3,0,US,34.13973,-118.03534,Arcadia
170,1,18,311,148,3,0,US,34.39166,-118.54259,Santa Clarita
171,1,18,308,148,3,0,US,33.91918,-118.41647,El Segundo
172,1,18,309,148,3,0,US,33.83585,-118.34063,Torrance
173,1,18,309,148,3,0,US,33.84918,-118.38841,Redondo Beach
174,1,25,444,161,3,0,US,21.40241,-157.74054,Kailua
175,1,25,446,161,3,0,US,20.89133,-156.50604,Wailuku
176,1,25,446,161,3,0,US,20.88953,-156.47432,Kahului
177,1,25,444,161,3,0,US,21.30694,-157.85833,Honolulu
178,3,40,828,276,3,0,JP,33.94306,131.25111,Ube
179,3,40,828,276,3,0,JP,34.05,131.56667,Hōfu
180,3,40,828,276,3,0,JP,33.85181,130.85034,Kitakyushu
181,3,40,828,276,3,0,JP,34.38333,131.2,Nagato
182,3,40,828,278,3,0,JP,33.6,130.41667,Fukuoka
183,2,26,449,161,3,0,NL,52.25917,4.75972,Aalsmeer
184,2,32,724,239,3,0,ES,38.53816,-0.13098,Benidorm
185,2,32,724,240,3,0,ES,38.34517,-0.48149,Alicante
186,2,32,724,242,3,0,ES,37.38918,-1.943,Huércal-Overa
187,3,40,830,282,3,0,JP,34.41667,135.31667,Izumisano
188,2,31,680,184,3,0,RU,56.8519,60.6122,Yekaterinburg
189,3,43,884,291,3,0,NZ,-44.39672,171.25364,Timaru
190,3,43,884,291,3,0,NZ,-43.53333,172.63333,Christchurch
191,3,43,884,291,3,0,NZ,-45.87416,170.50361,Dunedin
192,3,43,885,296,3,0,AU,-33.86667,150.95,Fairfield
193,3,43,884,291,3,0,NZ,-43.89834,171.73011,Ashburton
194,3,43,884,291,3,0,NZ,-46.4,168.35,Invercargill
195,3,43,887,308,7,0,AU,-37.96944,145.04806,Cheltenham
196,3,43,885,304,3,0,AU,-26.80346,153.12195,Caloundra
197,3,47,888,316,7,0,ID,-6.09889,106.63806,Teluknaga
198,3,47,890,333,7,0,ID,-8.5098,115.2654,Ubud
199,3,43,885,304,4,0,AU,-27.61328,152.78944,Booval
200,3,43,885,304,4,0,AU,-27.3171,153.03097,Bracken Ridge
201,3,47,888,316,7,0,ID,-6.21462,106.84513,Jakarta
202,3,47,888,316,7,0,ID,-6.28862,106.71789,South Tangerang
203,3,47,888,316,7,0,ID,-6.31694,106.66417,Serpong
204,3,48,892,356,7,0,TH,13.75398,100.50144,Bangkok
205,3,48,892,356,7,0,TH,13.99904,100.54962,Ban Bang Kadi Pathum Thani
206,3,47,890,333,7,0,ID,-8.65,115.21667,Denpasar
207,3,47,890,333,7,0,ID,-8.72332,115.17234,Kuta
208,3,48,893,356,7,0,TH,16.44671,102.833,Khon Kaen
209,3,48,892,356,7,0,TH,13.64172,100.83272,Ban Khlong Bang Sao Thong
210,3,48,893,356,7,0,TH,17.41567,102.78589,Udon Thani
211,3,48,895,356,7,0,TH,18.79038,98.98468,Chiang Mai
212,2,30,618,184,3,0,GB,51.46593,-0.10652,Brixton
213,1,18,322,148,3,0,US,35.28275,-120.65962,San Luis Obispo
214,2,30,631,184,3,0,GB,51.46,-2.12472,Chippenham
215,2,30,618,184,3,0,GB,51.47403,-0.06969,Peckham
216,2,28,550,171,3,0,FR,48.85341,2.3488,Paris
217,2,30,619,184,3,0,GB,51.48333,-0.6,Windsor
218,2,30,618,184,3,0,GB,51.54057,-0.14334,Camden Town
219,1,18,323,148,3,0,US,34.42083,-119.69819,Santa Barbara
220,1,19,328,148,3,0,US,33.49838,-112.13432,Alhambra
221,2,30,631,184,3,0,GB,51.3751,-2.36172,Bath
222,2,30,618,184,3,0,GB,51.51116,-0.18426,Bayswater
223,1,20,342,148,3,0,US,46.99651,-120.54785,Ellensburg
224,1,20,350,148,3,0,US,46.73127,-117.17962,Pullman
225,1,20,341,148,3,0,US,47.60621,-122.33207,Seattle
226,1,11,201,70,0,0,US,44.48221,-88.0701,Ashwaubenon
227,1,11,201,70,0,0,US,44.51916,-88.01983,Green Bay
228,1,11,202,76,3,0,US,39.12711,-84.51439,Cincinnati
229,2,30,618,184,3,0,GB,51.53333,0.08333,Barking
230,2,30,618,184,3,0,GB,51.50519,-0.02085,Canary Wharf
231,2,30,618,184,3,0,GB,51.51579,-0.4234,Hayes
232,1,22,362,148,3,0,CA,43.5789,-79.6583,Mississauga
233,2,30,618,184,3,0,GB,51.53622,-0.10304,Islington
234,1,9,194,25,0,0,US,28.53834,-81.37924,Orlando
235,1,15,277,126,3,0,US,40.66399,-74.2107,Elizabeth
236,1,15,277,126,3,0,US,40.73566,-74.17237,Newark
237,1,22,363,148,3,0,CA,45.01809,-74.72815,Cornwall
238,1,15,275,112,3,0,US,43.04812,-76.14742,Syracuse
239,1,17,291,148,3,0,US,37.65466,-122.40775,South San Francisco
240,1,20,348,148,3,0,US,45.52345,-122.67621,Portland
241,1,18,313,148,3,0,US,33.85363,-118.13396,Lakewood
242,1,20,337,148,3,0,US,44.05207,-123.08675,Eugene
243,1,12,205,112,3,0,US,39.92054,-105.08665,Broomfield
244,1,15,277,124,3,0,US,40.6501,-73.94958,Brooklyn
245,1,14,250,112,3,0,US,33.749,-84.38798,Atlanta
246,1,11,202,77,3,0,US,40.68496,-80.10714,Cranberry Township
247,2,27,466,161,3,0,DE,52.49973,13.40338,Kreuzberg
248,2,31,651,184,3,0,DK,55.67594,12.56553,Copenhagen
249,1,17,291,148,3,0,US,37.56299,-122.32553,San Mateo
250,2,31,652,184,3,0,DK,55.31274,10.78964,Nyborg
251,1,17,295,148,3,0,US,38.44047,-122.71443,Santa Rosa
252,1,15,275,112,3,0,US,42.74702,-73.75901,Latham
253,2,27,470,161,3,0,AT,48.20906,16.37135,Innere Stadt
254,1,20,339,148,3,0,CA,49.36672,-123.16652,West Vancouver
255,1,20,339,148,3,0,CA,49.31637,-122.85263,Anmore
256,1,23,388,153,3,0,US,37.64292,-77.50887,Laurel
257,1,23,388,153,3,0,US,37.59015,-77.55638,Tuckahoe
258,1,23,388,153,3,0,US,37.55376,-77.46026,Richmond
259,1,23,378,153,3,0,US,38.87428,-77.22693,Merrifield
260,1,23,378,153,3,0,US,38.9258,-77.40156,Oak Hill
261,1,23,376,153,3,0,US,39.14539,-77.14415,Redland
262,1,15,277,124,3,0,US,40.76496,-73.9909,Hell's Kitchen
263,1,10,195,36,0,0,PR,18.20107,-67.13962,Mayagüez
264,1,10,195,36,0,0,PR,18.38078,-65.95739,Carolina
265,1,10,195,36,0,0,PR,18.47245,-66.71573,Arecibo
266,1,10,195,36,0,0,PR,18.11191,-66.166,Cayey
267,1,10,195,36,0,0,PR,18.35467,-66.00739,Trujillo Alto
268,1,10,195,36,0,0,PR,18.35745,-66.111,Guaynabo
269,1,15,277,124,3,0,US,40.71649,-73.88125,Middle Village
270,3,50,924,356,7,0,IN,28.67957,77.06799,Nāngloi Jāt
271,3,50,924,360,7,0,IN,26.91962,75.78781,Jaipur
272,3,50,924,360,7,0,IN,26.02301,76.34408,Sawāi Mādhopur
273,3,50,924,356,7,0,IN,28.4601,77.02635,Gurgaon
274,1,13,223,112,3,0,US,30.4427,-97.77501,Jollyville
275,1,9,194,32,0,0,US,26.43814,-81.80675,Estero
276,1,9,194,32,0,0,US,26.52036,-81.96398,Iona
277,1,9,194,32,0,0,US,26.4673,-81.80147,San Carlos Park
278,1,22,362,148,3,0,CA,43.70011,-79.4163,Toronto
279,1,15,279,134,3,0,US,42.35843,-71.05977,Boston
280,1,20,339,148,3,0,CA,50.01634,-125.24459,Campbell River
281,1,20,339,148,3,0,CA,49.26636,-122.95263,Burnaby
282,1,20,339,148,3,0,CA,49.68657,-124.9936,Courtenay
283,1,20,351,148,3,0,CA,50.45008,-104.6178,Regina
284,1,20,339,148,3,0,CA,49.16638,-123.94003,Nanaimo
285,1,20,351,148,3,0,CA,52.13238,-106.66892,Saskatoon
286,1,20,352,148,3,0,CA,51.05011,-114.08529,Calgary
287,1,20,339,148,3,0,CA,49.17003,-123.13683,Richmond
288,1,18,312,148,3,0,US,33.64113,-117.91867,Costa Mesa
289,1,20,348,148,3,0,US,45.48706,-122.80371,Beaverton
290,1,15,277,123,3,0,US,41.50343,-74.01042,Newburgh
291,3,40,832,289,3,0,JP,35.6895,139.69171,Tokyo
292,3,40,832,289,3,0,JP,35.65583,139.32389,Hachiōji
293,3,40,832,289,3,0,JP,35.38329,139.93254,Kisarazu
294,3,40,832,289,3,0,JP,35.30889,139.55028,Kamakura
295,3,40,830,284,3,0,JP,35.16667,135.91667,Kitahama
296,3,40,830,284,3,0,JP,35.02107,135.75385,Kyoto
297,3,40,838,289,3,0,JP,34.76667,137.38333,Toyohashi
298,3,40,839,289,3,0,JP,34.68503,138.20461,Sagara
299,3,40,830,282,3,0,JP,34.69374,135.50218,Osaka
300,1,20,348,148,3,0,US,45.63873,-122.66149,Vancouver
301,1,18,314,148,3,0,US,34.14778,-118.14452,Pasadena
302,1,18,314,148,3,0,US,34.18973,-118.13118,Altadena
303,1,9,193,18,0,0,US,26.27119,-80.2706,Coral Springs
304,1,18,308,148,3,0,US,34.07808,-118.26066,Echo Park
305,1,9,194,25,0,0,US,28.30468,-81.41667,Kissimmee
306,1,9,194,25,0,0,US,28.50167,-81.54091,Lake Butler
307,1,9,194,25,0,0,US,28.47112,-81.42452,Oak Ridge
308,1,9,194,25,0,0,US,28.39306,-81.3834,Southchase
309,1,14,247,112,3,0,US,36.16589,-86.78444,Nashville
310,1,17,292,148,3,0,US,38.10742,-122.5697,Novato
311,1,17,295,148,3,0,US,38.23242,-122.63665,Petaluma
312,1,17,295,148,3,0,US,38.54713,-122.81638,Windsor
313,1,17,291,148,3,0,US,37.50716,-122.26052,San Carlos
314,1,17,296,148,3,0,US,36.97412,-122.0308,Santa Cruz
315,1,12,208,112,3,0,US,46.87215,-113.994,Missoula
316,1,23,378,153,3,0,US,38.96955,-77.3861,Herndon
317,1,20,341,148,3,0,US,47.67887,-122.02833,Union Hill-Novelty Hill
318,1,20,341,148,3,0,US,47.44846,-122.29217,SeaTac
319,1,20,341,148,3,0,US,47.48288,-122.21707,Renton
320,1,13,223,112,3,0,US,30.5052,-97.82029,Cedar Park
321,1,13,227,112,3,0,US,32.73569,-97.10807,Arlington
322,1,13,227,112,3,0,US,32.48236,-96.99445,Midlothian
323,1,13,227,112,3,0,US,32.96179,-96.82917,Addison
324,1,13,227,112,3,0,US,32.85013,-96.80028,University Park
325,1,18,308,148,3,0,US,34.05779,-118.30091,Koreatown
326,2,28,555,184,3,0,FR,47.47381,-0.54774,Angers
327,2,28,552,184,3,0,FR,49.28669,1.00288,Elbeuf
328,2,28,555,184,3,0,FR,48.43476,0.09311,Alençon
329,2,30,617,184,3,0,FR,50.95194,1.85635,Calais
330,2,28,555,184,3,0,FR,45.62846,-1.0281,Royan
331,2,28,552,184,3,0,FR,49.44313,1.09932,Rouen
332,2,30,618,184,3,0,GB,51.11303,-0.18312,Crawley
333,2,30,635,184,3,0,GB,54.53478,-1.05606,Guisborough
334,2,30,618,184,3,0,GB,51.5824,-0.09956,Harringay
335,2,30,618,184,3,0,GB,51.37178,-0.45975,Weybridge
336,2,27,472,161,3,0,FR,48.28333,6.95,Saint-Dié-des-Vosges
337,2,27,478,161,3,0,PL,52.24424,21.08545,Praga Południe
338,2,26,455,161,3,0,BE,50.85045,4.34878,Brussels
339,2,26,454,161,3,0,BE,50.22678,5.34416,Marche-en-Famenne
340,2,30,618,184,3,0,GB,51.17423,-0.15919,Horley
341,2,29,590,184,3,0,IT,45.35405,10.84462,Villafranca di Verona
342,2,27,485,161,3,0,DE,50.10038,8.6295,Gallus
343,2,26,455,161,3,0,BE,50.84799,4.25972,Dilbeek
344,2,26,455,161,3,0,BE,50.82372,4.51418,Tervuren
345,2,26,457,161,3,0,BE,51.35,3.26667,Knokke-Heist
346,1,15,277,124,3,0,US,40.77955,-74.02375,Union City
347,2,30,618,184,3,0,GB,51.65531,-0.39602,Watford
348,2,26,454,161,3,0,BE,50.48941,5.09513,Andenne
349,2,26,455,161,3,0,BE,50.56149,4.69889,Gembloux
350,2,26,455,161,3,0,BE,50.92814,4.42938,Vilvoorde
351,2,27,466,161,3,0,DE,52.41116,13.5355,Altglienicke
352,2,30,618,184,3,0,GB,51.55242,-0.29686,Wembley
353,2,30,624,184,3,0,GB,52.62783,1.29834,Norwich
354,1,15,277,124,3,0,US,40.74399,-74.03236,Hoboken
355,1,15,277,128,3,0,US,40.97926,-74.11653,Ridgewood
356,2,28,572,184,3,0,FR,45.90621,6.1267,Annecy
357,2,26,455,161,3,0,BE,50.68363,4.36784,Braine-l'Alleud
358,2,26,455,161,3,0,BE,51.21979,4.32664,Zwijndrecht
359,3,43,887,308,7,0,AU,-37.87397,145.04253,Malvern East
360,3,43,887,308,7,0,AU,-37.96667,145.16667,Noble Park
361,3,43,887,308,7,0,AU,-37.94853,145.15274,Springvale
362,3,43,887,308,7,0,AU,-37.92845,145.17708,Mulgrave
363,3,43,887,308,7,0,AU,-37.97695,145.25866,Endeavour Hills
364,3,43,887,308,7,0,AU,-37.98333,145.2,Dandenong
365,3,43,887,308,7,0,AU,-37.814,144.96332,Melbourne
366,3,43,887,308,7,0,AU,-37.83333,145.05,Glenferrie
367,3,43,887,310,7,0,AU,-36.38047,145.39867,Shepparton
368,3,43,887,308,7,0,AU,-37.81819,145.00176,Richmond
369,3,43,885,296,3,0,AU,-33.90741,151.15546,Marrickville
370,3,43,887,308,7,0,AU,-37.89359,145.05534,Carnegie
371,3,43,887,308,7,0,AU,-37.69863,144.78631,Taylors Lakes
372,3,43,885,296,3,0,AU,-33.86785,151.20732,Sydney
373,3,43,887,308,7,0,AU,-37.91667,145.11667,Clayton
374,3,43,887,308,7,0,AU,-37.99116,145.17385,Keysborough
375,3,43,887,308,7,0,AU,-37.87709,145.12939,Mount Waverley
376,3,43,887,308,7,0,AU,-38.03333,145.25,Hampton Park
377,3,43,887,308,7,0,AU,-38.03333,145.3,Narre Warren
378,3,43,887,308,7,0,AU,-37.96649,145.2081,Dandenong North
379,3,43,887,308,7,0,AU,-37.8329,145.0367,Hawthorn South
380,1,15,277,124,3,0,US,40.66312,-73.76221,Springfield Gardens
381,1,11,202,76,3,0,US,39.15561,-84.45966,Norwood
382,1,11,202,76,3,0,US,39.07506,-84.44716,Fort Thomas
383,1,11,202,81,3,0,US,40.3934,-82.48572,Mount Vernon
384,1,11,202,76,3,0,US,39.09145,-84.49578,Newport
385,1,11,202,76,3,0,US,39.36006,-84.30994,Mason
386,1,11,202,76,3,0,US,39.507,-84.74523,Oxford
387,1,9,193,20,0,0,US,24.55524,-81.78163,Key West
388,1,11,202,82,3,0,US,39.77978,-84.1241,Riverside
389,1,11,202,76,3,0,US,39.21311,-84.59939,White Oak
390,1,9,194,31,0,0,US,30.12996,-81.76815,Lakeside
391,1,9,194,25,0,0,US,28.33287,-81.64738,Four Corners
392,1,9,194,29,0,0,US,28.35084,-80.72533,Rockledge
393,1,13,227,112,3,0,US,32.78306,-96.80667,Dallas
394,1,11,202,76,3,0,US,38.99895,-84.62661,Florence
395,1,11,202,84,3,0,US,38.14285,-85.62413,Highview
396,1,15,277,124,3,0,US,40.61872,-74.0332,Fort Hamilton
397,1,15,277,124,3,0,US,40.70789,-74.00857,Financial District
398,1,14,257,112,3,0,US,32.19382,-80.73816,Hilton Head Island
399,1,14,258,112,3,0,US,34.73706,-82.25428,Simpsonville
400,1,14,258,112,3,0,US,34.77873,-82.31012,Mauldin
401,1,14,258,112,3,0,US,34.85262,-82.39401,Greenville
402,1,14,254,112,3,0,US,35.11681,-80.72368,Matthews
403,1,15,279,141,3,0,US,41.76371,-72.68509,Hartford
404,1,20,349,148,3,0,US,44.98595,-122.98287,Hayesville
405,1,15,279,141,3,0,US,41.71982,-72.83204,Farmington
406,3,47,890,336,7,0,ID,-7.91346,113.82145,Bondowoso
407,3,47,888,318,7,0,ID,-6.92222,107.60694,Bandung
408,3,47,888,318,7,0,ID,-6.83778,107.47278,Padalarang
409,3,47,888,318,7,0,ID,-6.81167,107.6175,Lembang
410,3,47,890,336,7,0,ID,-8.31667,114.23333,Singojuruh
411,3,47,890,336,7,0,ID,-7.9908,114.4009,Wongsorejo
412,3,47,888,318,7,0,ID,-7.1955,107.4313,Banjar
413,3,47,890,336,7,0,ID,-8.2325,114.35755,Banyuwangi
414,3,47,890,337,7,0,ID,-7.39083,112.72667,Gedangan
415,3,47,888,316,7,0,ID,-6.2349,106.9896,Bekasi
416,3,47,888,319,7,0,ID,-6.55694,107.44333,Purwakarta
417,3,47,891,349,7,0,ID,-5.006,119.5727,Maros
418,2,30,638,184,3,0,GB,53.45,-2.31667,Stretford
419,3,49,913,356,7,0,MY,3.1412,101.68653,Kuala Lumpur
420,3,47,888,316,7,0,ID,-6.17806,106.63,Tangerang
421,3,47,891,349,7,0,ID,-5.14861,119.43194,Makassar
422,3,47,888,316,7,0,ID,-6.26583,106.55639,Curug
423,3,49,913,356,7,0,MY,3.15,101.53333,Kampung Baru Subang
424,3,49,919,356,7,0,MY,2.196,102.2405,Malacca
425,3,49,910,356,7,0,MY,4.5841,101.0829,Ipoh
426,3,49,910,356,7,0,MY,4.16667,101.2,Tapah Road
427,3,49,913,356,7,0,MY,3.04384,101.58062,Subang Jaya
428,3,49,910,356,7,0,MY,4.3,101.15,Kampar
429,3,49,910,356,7,0,MY,4.46916,101.04107,Batu Gajah
430,1,12,205,112,3,0,US,39.61332,-105.01665,Littleton
431,1,12,205,112,3,0,US,39.73915,-104.9847,Denver
432,1,18,320,148,3,0,US,36.09831,-115.0363,Whitney
433,1,13,229,112,3,0,US,36.70698,-97.08559,Ponca City
434,1,23,384,153,3,0,US,39.41955,-76.78025,Owings Mills
435,1,23,384,153,3,0,US,39.40371,-76.95026,Eldersburg
436,1,17,293,148,3,0,US,37.36883,-122.03635,Sunnyvale
437,1,23,384,153,3,0,US,39.13705,-76.6983,Severn
438,1,23,384,153,3,0,US,39.46976,-76.8319,Reisterstown
439,1,23,384,153,3,0,US,39.4015,-76.60191,Towson
440,1,23,384,153,3,0,US,39.34066,-76.72219,Lochearn
441,1,23,380,153,3,0,US,39.00455,-76.87553,Greenbelt
442,2,30,641,184,3,0,GB,52.19166,-1.70734,Stratford-upon-Avon
443,1,23,384,153,3,0,US,39.37427,-76.72247,Pikesville
444,1,23,378,153,3,0,US,38.91872,-77.23109,Tysons Corner
445,1,23,384,153,3,0,US,39.20705,-76.72692,West Elkridge
446,1,23,377,153,3,0,US,39.14511,-76.90025,Scaggsville
447,1,11,202,78,3,0,US,39.65287,-78.76252,Cumberland
448,1,14,254,112,3,0,US,35.22709,-80.84313,Charlotte
449,1,23,379,153,3,0,US,39.41427,-77.41054,Frederick
450,1,13,224,112,3,0,US,29.42412,-98.49363,San Antonio
451,1,23,384,153,3,0,US,39.19289,-76.72414,Hanover
452,1,23,381,153,3,0,US,38.79615,-76.97499,Oxon Hill-Glassmanor
453,1,23,381,153,3,0,US,38.83289,-76.95942,Hillcrest Heights
454,1,23,376,153,3,0,US,39.07622,-76.95775,Fairland
455,1,23,384,153,3,0,US,39.25455,-76.69997,Arbutus
456,1,23,378,153,3,0,US,38.79345,-77.27165,Burke
457,1,23,385,153,3,0,US,39.15817,-75.52437,Dover
458,1,15,276,112,3,0,US,39.93759,-77.6611,Chambersburg
459,1,18,321,148,3,0,US,32.76783,-117.02308,La Mesa
460,1,23,384,153,3,0,US,39.36733,-76.79525,Randallstown
461,1,23,376,153,3,0,US,38.98067,-76.93692,College Park
462,1,23,384,153,3,0,US,39.34788,-76.76997,Milford Mill
463,1,11,203,95,3,0,US,42.73253,-84.55553,Lansing
464,1,11,202,85,3,0,US,41.4995,-81.69541,Cleveland
465,1,15,279,134,3,0,US,42.39593,-71.17867,Belmont
466,1,15,279,134,3,0,US,42.50482,-71.19561,Burlington
467,1,15,279,134,3,0,US,42.41537,-71.15644,Arlington
468,1,11,200,40,0,0,US,44.94441,-93.09327,Saint Paul
469,1,11,200,40,0,0,US,44.86219,-93.53079,Chanhassen
470,1,11,200,40,0,0,US,44.8408,-93.29828,Bloomington
471,2,28,560,184,3,0,FR,45.6125,5.14558,Villefontaine
472,2,28,560,184,3,0,FR,45.74846,4.84671,Lyon
473,0,6,146,15,0,0,CL,-33.4443,-70.72552,Lo Prado
474,1,22,366,148,3,0,CA,45.4473,-73.75335,Dorval
475,1,22,366,148,3,0,CA,45.56995,-73.692,Laval
476,1,19,328,148,3,0,US,33.41421,-111.94348,Tempe Junction
477,1,14,253,112,3,0,US,30.43826,-84.28073,Tallahassee
478,1,9,194,30,0,0,US,29.02582,-80.927,New Smyrna Beach
479,1,9,194,28,0,0,US,28.85277,-81.68535,Eustis
480,2,31,657,184,3,0,SE,59.36128,17.97114,Sundbyberg
481,2,30,636,184,3,0,GB,55.0,-1.61667,Gosforth
482,2,30,637,184,3,0,GB,53.95763,-1.08271,York
483,2,30,637,184,3,0,GB,53.52285,-1.13116,Doncaster
484,1,17,293,148,3,0,US,37.38605,-122.08385,Mountain View
485,2,30,618,184,3,0,GB,51.50901,-0.2762,Acton
486,2,30,618,184,3,0,GB,51.55237,-0.12497,Holloway
487,2,30,618,184,3,0,GB,51.47518,-0.34246,Isleworth
488,1,22,363,148,3,0,CA,44.18342,-77.56618,Quinte West
489,2,30,643,184,3,0,GB,55.93415,-3.47133,Broxburn
490,1,22,368,148,3,0,CA,45.47723,-75.70164,Gatineau
491,1,22,368,148,3,0,CA,45.35215,-75.73975,Nepean
492,1,22,362,148,3,0,CA,43.38621,-79.83713,Burlington
493,1,22,363,148,3,0,CA,44.22976,-76.48098,Kingston
494,1,22,368,148,3,0,CA,45.41117,-75.69812,Ottawa
495,2,26,449,161,3,0,NL,52.3025,4.68889,Hoofddorp
496,1,20,343,148,3,0,US,47.86278,-122.29497,Picnic Point-North Lynnwood
497,1,20,348,148,3,0,US,45.71067,-122.64899,Salmon Creek
498,1,20,348,148,3,0,US,45.66651,-122.56093,Orchards
499,1,20,344,148,3,0,US,46.71621,-122.9543,Centralia
500,1,20,348,148,3,0,US,46.13817,-122.93817,Longview
501,1,15,277,124,3,0,US,40.71427,-73.95347,Williamsburg
502,1,15,277,124,3,0,US,40.71427,-74.00597,New York City
503,2,30,636,184,3,0,GB,54.94561,-1.67635,Whickham
504,2,30,643,184,3,0,GB,55.86515,-4.25763,Glasgow
505,2,30,636,184,3,0,GB,54.95297,-1.57152,Felling
506,2,30,635,184,3,0,GB,54.52429,-1.55039,Darlington
507,2,30,624,184,3,0,GB,52.24467,0.40418,Newmarket
508,2,30,619,184,3,0,GB,51.24827,-0.76389,Aldershot
509,2,30,636,184,3,0,GB,54.77676,-1.57566,Durham
510,2,27,549,168,3,0,UA,49.83826,24.02324,Lviv
511,2,27,501,161,3,0,AT,47.06667,15.45,Graz
512,2,27,502,161,3,0,DE,48.62695,13.19222,Vilshofen
513,2,27,501,161,3,0,AT,47.11387,15.42348,Andritz
514,2,27,466,161,3,0,DE,52.56667,13.33333,Reinickendorf
515,2,27,466,161,3,0,DE,52.52003,13.40489,Mitte
516,2,27,466,161,3,0,DE,52.57601,13.29389,Tegel
517,2,27,466,161,3,0,DE,52.51559,13.45482,Friedrichshain
518,2,29,593,184,3,0,IT,45.39402,9.29109,San Giuliano Milanese
519,1,15,279,134,3,0,US,42.41843,-71.10616,Medford
520,1,15,279,140,3,0,US,41.3417,-72.13597,Waterford
521,1,15,277,132,3,0,US,40.76704,-72.99622,East Patchogue
522,2,30,617,184,3,0,GB,51.3148,0.88856,Faversham
523,1,9,193,19,0,0,US,25.81454,-80.22394,Allapattah
524,2,30,618,184,3,0,GB,51.50853,-0.12574,London
525,2,30,618,184,3,0,GB,51.43173,-0.45761,Ashford
526,2,30,617,184,3,0,GB,51.27904,1.07992,Canterbury
527,1,15,277,124,3,0,US,40.71427,-73.83097,Kew Gardens
528,3,43,887,314,7,0,AU,-42.87936,147.32941,Hobart
529,2,30,618,184,3,0,GB,51.4647,0.0079,Blackheath
530,2,26,459,161,3,0,FR,50.41359,2.96485,Hénin-Beaumont
531,2,26,459,161,3,0,FR,50.63297,3.05858,Lille
532,2,26,459,161,3,0,FR,50.25077,3.92143,Hautmont
533,2,28,551,184,3,0,FR,50.1,1.83333,Abbeville
534,2,26,459,161,3,0,FR,50.29301,2.78186,Arras
535,1,22,369,148,3,0,CA,47.51659,-52.78135,Mount Pearl
536,1,22,370,148,3,0,CA,48.95001,-57.95202,Corner Brook
537,2,26,459,161,3,0,BE,50.50819,3.59373,Péruwelz
538,2,26,459,161,3,0,BE,50.39583,3.77792,Dour
539,2,30,638,184,3,0,GB,53.48095,-2.23743,Manchester
540,2,30,639,184,3,0,GB,54.8951,-2.9382,Carlisle
541,2,30,643,184,3,0,GB,55.87197,-4.39253,Renfrew
542,2,30,639,184,3,0,GB,53.76282,-2.70452,Preston
543,1,15,279,142,3,0,US,41.22232,-73.0565,Milford
544,2,26,448,161,3,0,NL,51.9225,4.47917,Rotterdam
545,2,26,450,161,3,0,NL,51.88667,5.42917,Tiel
546,2,27,503,161,3,0,DE,47.51821,10.28262,Sonthofen
547,2,27,490,161,3,0,DE,49.13995,9.22054,Heilbronn
548,2,26,450,161,3,0,NL,51.525,5.975,Venray
549,1,17,304,148,3,0,US,38.93324,-119.98435,South Lake Tahoe
550,2,27,504,161,3,0,AT,47.30707,11.06817,Telfs
551,2,26,450,161,3,0,NL,51.97417,5.34167,Wijk bij Duurstede
552,2,26,450,161,3,0,NL,51.765,5.51806,Oss
553,2,26,449,161,3,0,NL,52.37403,4.88969,Amsterdam
554,2,29,597,184,3,0,IT,41.89193,12.51133,Rome
555,2,29,601,184,3,0,IT,43.46276,11.88068,Arezzo
556,1,17,304,148,3,0,US,39.52963,-119.8138,Reno
557,1,17,303,148,3,0,US,37.9577,-121.29078,Stockton
558,1,17,304,148,3,0,US,39.5963,-119.77602,Sun Valley
559,1,15,279,144,3,0,US,43.64147,-70.24088,South Portland
560,1,15,279,142,3,0,US,41.16704,-73.20483,Bridgeport
561,1,15,279,145,3,0,US,42.15843,-72.32869,Palmer
562,1,20,353,148,3,0,CA,55.16667,-118.80271,Grande Prairie
563,1,17,304,148,3,0,US,39.32796,-120.18325,Truckee
564,1,15,279,145,3,0,US,42.0501,-72.58287,Longmeadow
565,1,11,201,60,0,0,US,41.8567,-87.62477,Near South Side
566,1,11,203,96,3,0,CA,48.38202,-89.25018,Thunder Bay
567,1,12,204,107,3,0,US,40.69995,-111.81049,East Millcreek
568,2,27,499,161,3,0,DE,51.57077,6.98593,Gladbeck
569,1,12,205,112,3,0,US,40.01499,-105.27055,Boulder
570,1,20,351,148,3,0,CA,49.84692,-99.95306,Brandon
571,1,20,353,148,3,0,CA,50.6998,-119.30237,Salmon Arm
572,1,11,201,62,0,0,US,41.7942,-87.59394,Hyde Park
573,1,20,351,148,3,0,CA,49.8844,-97.14704,Winnipeg
574,1,20,335,148,3,0,US,42.43933,-123.33067,Grants Pass
575,1,11,200,38,0,0,US,39.80172,-89.64371,Springfield
576,1,22,371,153,3,0,CA,46.80326,-71.17793,Lévis
577,1,20,348,148,3,0,US,45.21012,-123.19872,McMinnville
578,1,12,206,112,3,0,US,40.58526,-105.08442,Fort Collins
579,1,20,338,148,3,0,US,40.94652,-124.10062,McKinleyville
580,1,20,352,148,3,0,CA,51.18341,-114.46871,Cochrane
581,1,22,370,149,3,0,CA,46.07844,-64.68735,Dieppe
582,1,11,201,60,0,0,US,41.8542,-87.66561,Lower West Side
583,1,22,370,150,3,0,CA,46.23899,-63.13414,Charlottetown
584,1,17,305,148,3,0,US,38.54491,-121.74052,Davis
585,1,12,209,112,3,0,US,41.58746,-109.2029,Rock Springs
586,1,11,200,45,0,0,US,38.84028,-97.61142,Salina
587,1,15,279,141,3,0,US,41.8526,-72.6437,Windsor
588,1,12,204,107,3,0,US,40.53078,-112.29828,Tooele
589,1,22,370,150,3,0,CA,45.94541,-66.66558,Fredericton
590,1,22,370,150,3,0,CA,45.27271,-66.06766,Saint John
591,1,11,200,46,0,0,US,38.99167,-94.63357,Prairie Village
592,1,20,351,148,3,0,CA,50.03928,-110.67661,Medicine Hat
593,1,20,341,148,3,0,US,47.5301,-122.03262,Issaquah
594,1,11,200,46,0,0,US,39.04167,-94.72024,Shawnee
595,1,11,202,77,3,0,US,40.44062,-79.99589,Pittsburgh
596,1,11,200,46,0,0,US,39.01695,-94.28161,Blue Springs
597,1,20,351,148,3,0,CA,49.76741,-94.48985,Kenora
598,1,22,366,148,3,0,CA,45.50884,-73.58781,Montréal
599,1,11,202,78,3,0,US,40.32674,-78.92197,Johnstown
600,1,20,353,148,3,0,CA,50.66648,-120.3192,Kamloops
601,1,20,344,148,3,0,US,46.97537,-123.81572,Aberdeen
602,1,11,200,36,0,0,US,38.62727,-90.19789,St. Louis
603,1,17,304,148,3,0,US,39.60797,-119.25183,Fernley
604,1,12,204,107,3,0,US,40.61967,-111.81021,Cottonwood Heights
605,1,12,209,112,3,0,US,40.83242,-115.76312,Elko
606,3,43,887,309,7,0,AU,-38.17828,146.26099,Moe
607,3,43,887,312,7,0,AU,-38.17058,144.3114,Highton
608,3,43,887,311,7,0,AU,-37.56622,143.84957,Ballarat
609,3,43,885,301,3,0,AU,-35.35493,149.232,Queanbeyan
610,2,29,591,184,3,0,IT,45.4105,12.36649,Lido
611,2,29,591,184,3,0,IT,45.78071,12.84052,Portogruaro
612,2,29,604,184,3,0,IT,44.69825,10.63125,Reggio nell'Emilia
613,2,29,591,184,3,0,IT,45.40797,11.88586,Padova
614,2,27,505,161,3,0,DE,47.7044,12.10466,Burg Unter-Falkenstein
615,2,29,592,184,3,0,IT,46.71503,11.65598,Bressanone
616,2,27,500,161,3,0,DE,51.05089,13.73832,Dresden
617,2,27,495,161,3,0,DE,49.45421,11.07752,Nürnberg
618,2,30,632,184,3,0,GB,53.48333,-2.65,Ashton in Makerfield
619,2,30,624,184,3,0,GB,52.57364,-0.24777,Peterborough
620,2,30,638,184,3,0,GB,53.39254,-2.58024,Warrington
621,2,30,620,184,3,0,GB,51.90224,-0.20256,Stevenage
622,2,30,632,184,3,0,GB,53.4115,-2.83935,Huyton
623,2,30,641,184,3,0,GB,52.80521,-2.11636,Stafford
624,2,30,632,184,3,0,GB,53.14515,-2.36251,Sandbach
625,2,30,620,184,3,0,GB,52.08652,-0.26493,Biggleswade
626,2,30,641,184,3,0,GB,52.66277,-2.01111,Great Wyrley
627,2,30,636,184,3,0,GB,54.85862,-1.57408,Chester-le-Street
628,2,30,643,184,3,0,GB,55.95206,-3.19648,Edinburgh
629,2,30,632,184,3,0,GB,53.41058,-2.97794,Liverpool
630,2,30,624,184,3,0,GB,52.33049,-0.18651,Huntingdon
631,1,15,277,132,3,0,US,40.81538,-73.11233,Ronkonkoma
632,1,15,277,132,3,0,US,40.79065,-73.20178,Central Islip
633,1,15,277,132,3,0,US,40.88621,-73.25734,Kings Park
634,2,27,486,161,3,0,DE,51.41505,9.65046,Hannoversch Münden
635,2,28,551,184,3,0,FR,48.77275,5.16108,Bar-le-Duc
636,2,30,617,184,3,0,GB,51.38132,1.38617,Margate
637,2,30,618,184,3,0,GB,51.60938,0.02329,Woodford Green
638,2,31,657,184,3,0,SE,59.33333,18.28333,Boo
639,2,31,657,184,3,0,SE,59.36004,18.00086,Solna
640,2,30,637,184,3,0,GB,53.79648,-1.54785,Leeds
641,2,32,725,253,3,0,ES,40.45975,-3.6975,Tetuán de las Victorias
642,2,31,657,184,3,0,SE,59.42804,17.95093,Sollentuna
643,2,31,657,184,3,0,SE,59.62157,17.85476,Märsta
644,2,28,556,184,3,0,FR,43.29551,5.40055,Marseille 05
645,2,30,639,184,3,0,GB,54.54897,-3.58412,Whitehaven
646,2,32,725,255,3,0,ES,40.4165,-3.70256,Madrid
647,2,30,637,184,3,0,GB,53.86437,-1.68743,Yeadon
648,2,30,637,184,3,0,GB,53.83333,-1.76667,Shipley
649,1,16,281,148,3,0,US,29.99409,-90.24174,Kenner
650,1,13,230,112,3,0,US,29.76328,-95.36327,Houston
651,1,16,281,148,3,0,US,29.94296,-89.96537,Chalmette
652,2,27,470,161,3,0,AT,48.18333,16.43333,Simmering
653,2,27,505,161,3,0,DE,48.13743,11.57549,Munich
654,2,27,466,161,3,0,DE,52.53048,13.29371,Charlottenburg-Nord
655,2,27,504,161,3,0,AT,47.26815,11.36868,Hötting
656,1,17,292,148,3,0,US,37.75993,-122.41914,Mission District
657,1,18,308,148,3,0,US,34.09001,-118.36174,West Hollywood
658,2,27,516,161,3,0,CZ,49.74747,13.37759,Pilsen
659,1,18,316,148,3,0,US,33.74761,-116.97307,Hemet
660,2,27,516,161,3,0,CZ,50.10819,14.47457,Libeň
661,1,11,201,71,3,0,US,41.68338,-86.25001,South Bend
662,1,17,292,148,3,0,US,37.87159,-122.27275,Berkeley
663,1,25,446,161,3,0,US,20.76462,-156.44578,Kīhei
664,1,25,444,161,3,0,US,21.49837,-158.06515,Schofield Barracks
665,1,25,444,161,3,0,US,21.39734,-157.97516,Pearl City
666,1,25,444,161,3,0,US,21.33555,-158.0582,Kapolei
667,1,25,444,161,3,0,US,21.50279,-158.02464,Wahiawā
668,1,18,324,148,3,0,US,33.8303,-116.54529,Palm Springs
669,2,29,593,184,3,0,IT,45.53245,9.0402,Rho
670,1,11,201,60,0,0,US,41.95503,-87.94007,Bensenville
671,2,27,485,161,3,0,DE,49.99472,8.58361,Mörfelden-Walldorf
672,2,31,683,184,3,0,RU,55.71667,37.41667,Setun’
673,1,20,354,148,3,0,CA,53.53344,-113.91874,Spruce Grove
674,2,27,479,161,3,0,PL,54.35205,18.64637,Gdańsk
675,2,27,478,161,3,0,PL,52.23064,19.36409,Kutno
676,2,27,479,161,3,0,PL,54.53921,17.75012,Lębork
677,2,27,505,161,3,0,DE,48.40351,11.74876,Freising
678,2,27,479,161,3,0,PL,54.51889,18.53188,Gdynia
679,2,26,454,161,3,0,DE,50.77664,6.08342,Aachen
680,2,27,479,161,3,0,PL,54.60528,18.34717,Reda
681,2,27,505,161,3,0,DE,48.30603,11.90686,Erding
682,1,15,277,124,3,0,US,40.78955,-74.05653,Secaucus
683,1,15,277,129,3,0,US,40.75982,-74.4171,Madison
684,1,15,277,129,3,0,US,40.85788,-74.42599,Parsippany
685,1,15,277,128,3,0,US,40.82649,-74.10681,Rutherford
686,1,15,277,124,3,0,US,40.84843,-73.86375,Van Nest
687,1,15,277,126,3,0,US,40.74649,-74.15626,Harrison
688,1,15,279,142,3,0,US,41.31649,-73.09316,Shelton
689,1,13,231,112,3,0,US,34.22843,-92.0032,Pine Bluff
690,1,15,277,128,3,0,US,40.85093,-73.97014,Fort Lee
691,1,15,277,124,3,0,US,40.82455,-73.91041,Melrose
692,1,14,259,112,3,0,US,30.15946,-85.65983,Panama City
693,1,14,250,112,3,0,US,33.44734,-84.14686,McDonough
694,1,14,250,112,3,0,US,33.94621,-84.33465,Dunwoody
695,1,14,250,112,3,0,US,33.89205,-84.29881,Chamblee
696,1,23,376,153,3,0,US,39.10816,-76.99775,Cloverly
697,1,23,376,153,3,0,US,39.03983,-77.05526,Wheaton
698,1,15,279,142,3,0,US,41.30815,-72.92816,New Haven
699,1,23,384,153,3,0,US,39.32011,-76.51552,Rosedale
700,1,23,376,153,3,0,US,39.04455,-77.11887,North Bethesda
701,1,13,230,112,3,0,US,29.99883,-95.26216,Humble
702,1,15,277,124,3,0,US,40.82732,-73.85013,Unionport
703,1,23,384,153,3,0,US,39.33844,-76.47968,Rossville
704,1,23,376,153,3,0,US,39.07955,-77.07303,Aspen Hill
705,1,23,376,153,3,0,US,38.99067,-77.02609,Silver Spring
706,1,17,292,148,3,0,US,37.71715,-122.40433,Visitacion Valley
707,1,18,310,148,3,0,US,34.27834,-119.29317,Ventura
708,1,23,376,153,3,0,US,38.97789,-77.00748,Takoma Park
709,1,23,376,153,3,0,US,39.03983,-76.99303,White Oak
710,1,23,381,153,3,0,US,38.84872,-76.92386,Suitland
711,1,23,376,153,3,0,US,39.03483,-76.90747,Beltsville
712,1,18,322,148,3,0,US,36.3208,-121.24381,Greenfield
713,1,18,322,148,3,0,US,35.62664,-120.691,Paso Robles
714,1,18,322,148,3,0,US,34.63915,-120.45794,Lompoc
715,1,18,308,148,3,0,US,34.05223,-118.24368,Los Angeles
716,1,18,322,148,3,0,US,34.95303,-120.43572,Santa Maria
717,1,9,194,33,0,0,US,27.94752,-82.45843,Tampa
718,1,9,193,19,0,0,US,25.79065,-80.13005,Miami Beach
719,1,23,385,153,3,0,US,39.03206,-76.50274,Arnold
720,1,17,291,148,3,0,US,37.63049,-122.41108,San Bruno
721,1,11,201,60,0,0,US,42.01114,-87.84062,Park Ridge
722,1,9,194,31,0,0,US,30.17746,-81.38758,Palm Valley
723,1,11,201,63,0,0,US,41.49142,-87.67449,Park Forest
724,1,11,201,60,0,0,US,41.93531,-87.86562,Franklin Park
725,2,32,723,226,3,0,ES,41.32784,2.09472,El Prat de Llobregat
726,3,43,885,304,4,0,AU,-27.48034,153.02049,South Brisbane
727,3,43,885,304,4,0,AU,-27.58003,153.06064,Sunnybank
728,3,43,887,308,7,0,AU,-38.26667,145.01667,Mount Martha
729,3,43,885,304,3,0,AU,-26.68443,153.05705,Buderim
730,3,41,847,289,3,0,TW,25.04776,121.53185,Taipei
731,3,41,847,289,3,0,TW,24.88373,121.29043,Daxi
732,1,20,341,148,3,0,US,47.47399,-122.26096,Tukwila
733,1,20,341,148,3,0,US,47.44843,-122.15734,Fairwood
734,3,40,832,289,3,0,JP,35.71667,140.26667,Shisui
735,3,40,837,289,3,0,JP,38.33092,140.97691,Rifu
736,3,40,837,289,3,0,JP,38.31667,141.03333,Shiogama
737,3,40,832,289,3,0,JP,35.52056,139.71722,Kawasaki
738,3,40,837,289,3,0,JP,38.26667,140.86667,Sendai
739,2,28,574,184,3,0,FR,44.866,-0.59411,Le Bouscat
740,2,28,557,184,3,0,FR,48.08333,1.33333,Châteaudun
741,2,28,550,171,3,0,FR,48.80359,2.13424,Versailles
742,2,28,555,184,3,0,FR,43.21351,2.35162,Carcassonne
743,2,28,574,184,3,0,FR,44.80845,-0.54809,Bègles
744,2,28,555,184,3,0,FR,45.65,0.15,Angoulême
745,2,28,558,184,3,0,FR,47.8,1.06667,Vendôme
746,2,28,558,184,3,0,FR,47.38623,0.74849,Saint-Pierre-des-Corps
747,2,28,574,184,3,0,FR,44.91667,-0.23333,Libourne
748,2,28,555,184,3,0,FR,44.5,0.16667,Marmande
749,1,20,341,148,3,0,US,47.4943,-122.24092,Bryn Mawr-Skyway
750,1,16,281,148,3,0,US,29.97854,-90.16396,Metairie Terrace
751,2,32,725,252,3,0,ES,38.68712,-4.10734,Puertollano
752,2,32,725,252,3,0,ES,38.98626,-3.92907,Ciudad Real
753,2,32,722,217,3,0,ES,36.9838,-5.93933,Las Cabezas de San Juan
754,2,30,619,184,3,0,GB,51.23536,-0.57427,Guildford
755,2,32,725,253,3,0,ES,40.23604,-3.76752,Parla
756,2,32,722,210,3,0,ES,37.89155,-4.77275,Córdoba
757,2,32,722,217,3,0,ES,36.52672,-6.2891,Cadiz
758,2,30,619,184,3,0,GB,51.50949,-0.59541,Slough
759,2,30,625,184,3,0,GB,51.75222,-1.25596,Oxford
760,2,32,722,216,3,0,ES,37.38283,-5.97317,Sevilla
761,2,32,722,216,3,0,ES,37.28287,-5.92088,Dos Hermanas
762,2,30,618,184,3,0,GB,51.65147,-0.08497,Enfield Town
763,2,32,722,210,3,0,ES,38.03922,-4.05077,Andújar
764,2,30,625,184,3,0,GB,51.60928,-1.24214,Didcot
765,2,30,619,184,3,0,GB,51.45625,-0.97113,Reading
766,2,30,625,184,3,0,GB,51.67109,-1.28278,Abingdon
767,1,11,201,61,0,0,US,42.03336,-87.73339,Skokie
768,1,11,201,72,3,0,US,43.04946,-88.00759,Wauwatosa
769,1,11,201,65,0,0,US,42.55308,-87.93341,Pleasant Prairie
770,1,11,201,61,0,0,US,42.18169,-87.80034,Highland Park
771,1,11,201,65,0,0,US,42.3703,-87.90202,Gurnee
772,1,11,201,66,0,0,US,42.13919,-87.92896,Wheeling
773,1,11,201,61,0,0,US,42.04059,-87.78256,Morton Grove
774,1,14,247,112,3,0,US,36.03312,-86.78278,Brentwood
775,1,24,392,157,3,0,MX,19.70078,-101.18443,Morelia
776,1,11,201,65,0,0,US,42.21947,-87.97952,Vernon Hills
777,1,11,201,66,0,0,US,42.08836,-87.98063,Arlington Heights
778,1,24,392,157,3,0,MX,19.86006,-100.82857,Zinapécuaro
779,1,24,403,157,3,0,MX,21.01858,-101.2591,Guanajuato
780,1,11,201,66,0,0,US,42.03336,-88.08341,Schaumburg
781,1,24,410,157,3,0,MX,20.14085,-101.18251,Uriangato
782,1,11,201,65,0,0,US,42.28308,-87.95313,Libertyville
783,1,13,227,112,3,0,US,32.79957,-97.26918,Haltom City
784,1,24,392,157,3,0,MX,19.02492,-102.09318,Nueva Italia de Ruiz
785,1,24,403,157,3,0,MX,20.91528,-100.74389,San Miguel de Allende
786,1,24,392,157,3,0,MX,17.64344,-101.55212,Ixtapa-Zihuatanejo
787,1,24,410,157,3,0,MX,20.12571,-101.19208,Moroleón
788,1,11,201,73,3,0,US,43.09722,-89.50429,Middleton
789,1,11,201,65,0,0,US,42.37169,-88.09008,Round Lake Beach
790,1,11,201,61,0,0,US,42.12753,-87.82895,Northbrook
791,1,11,201,61,0,0,US,42.07225,-87.72284,Wilmette
792,1,11,201,72,3,0,US,43.22862,-88.11037,Germantown
793,1,11,201,61,0,0,US,42.01892,-87.80284,Niles
794,1,11,201,66,0,0,US,42.06642,-87.93729,Mount Prospect
795,1,11,201,72,3,0,US,42.8078,-87.92425,Caledonia
796,1,24,392,157,3,0,MX,20.08886,-101.51579,Puruándiro
797,1,11,201,65,0,0,US,42.34447,-88.04175,Grayslake
798,1,15,276,120,3,0,US,40.26983,-74.79988,Ewing
799,1,11,201,61,0,0,US,42.17114,-87.84451,Deerfield
800,1,11,201,66,0,0,US,42.15141,-87.95979,Buffalo Grove
801,1,11,201,67,0,0,US,41.9317,-87.98896,Addison
802,1,11,201,65,0,0,US,42.19697,-88.09341,Lake Zurich
803,1,14,247,112,3,0,US,36.20005,-86.51861,Mount Juliet
804,1,14,247,112,3,0,US,36.01562,-86.58194,La Vergne
805,1,14,260,112,3,0,US,33.68906,-78.88669,Myrtle Beach
806,1,14,248,112,3,0,US,35.86815,-83.56184,Sevierville
807,1,14,247,112,3,0,US,35.84562,-86.39027,Murfreesboro
808,1,14,247,112,3,0,US,35.98284,-86.5186,Smyrna
809,1,15,279,134,3,0,US,42.3876,-71.0995,Somerville
810,1,15,277,121,3,0,US,40.94871,-73.73263,Mamaroneck
811,1,14,254,112,3,0,US,35.4868,-80.86007,Cornelius
812,1,14,261,112,3,0,US,32.91851,-80.02203,Hanahan
813,1,11,202,89,3,0,US,38.41925,-82.44515,Huntington
814,3,43,885,304,4,0,AU,-27.46794,153.02809,Brisbane
815,3,40,832,289,3,0,JP,35.77995,139.90144,Matsudo
816,3,40,832,289,3,0,JP,35.67056,139.88861,Urayasu
817,3,40,832,289,3,0,JP,35.70129,139.98648,Honchō
818,3,40,832,289,3,0,JP,35.6,140.11667,Chiba
819,2,27,497,161,3,0,DE,50.96545,6.95314,Nippes
820,2,27,465,161,3,0,DE,52.37052,9.73322,Hannover
821,2,27,464,161,3,0,DE,53.16532,8.68873,Burglesum
822,2,26,448,161,3,0,NL,52.03634,4.32501,Rijswijk
823,2,26,448,161,3,0,NL,52.07667,4.29861,The Hague
824,2,27,499,161,3,0,DE,51.23812,6.78678,Düsseldorf-Pempelfort
825,2,27,499,161,3,0,DE,51.96236,7.62571,Münster
826,2,31,660,184,3,0,LV,56.946,24.10589,Riga
827,2,33,728,268,3,0,TR,41.02252,29.02369,Üsküdar
828,2,27,468,161,3,0,DE,53.89314,11.45286,Wismar
829,2,27,465,161,3,0,DE,52.44758,9.73741,Langenhagen
830,2,27,519,161,3,0,DE,53.59337,9.47629,Stade
831,2,27,499,161,3,0,DE,51.22172,6.77616,Düsseldorf
832,2,27,465,161,3,0,DE,52.31506,9.79739,Laatzen
833,2,27,466,161,3,0,DE,52.53878,13.42443,Prenzlauer Berg
834,2,27,499,161,3,0,DE,51.43218,6.87967,Mülheim
835,2,26,450,161,3,0,NL,52.09083,5.12222,Utrecht
836,2,29,597,184,3,0,IT,41.77093,12.23662,Fiumicino-Isola Sacra
837,2,27,499,161,3,0,DE,51.68033,7.82089,Hamm
838,2,27,499,161,3,0,DE,51.25268,6.68807,Meerbusch
839,2,28,550,171,3,0,FR,48.93333,2.36667,Saint-Denis
840,2,31,664,184,3,0,FI,60.18427,24.95034,Kallio
841,2,31,658,184,3,0,SE,60.60357,15.62597,Falun
842,2,31,658,184,3,0,SE,63.1792,14.63566,Östersund
843,1,11,200,40,0,0,US,44.88969,-93.34995,Edina
844,1,11,200,40,0,0,US,44.91608,-93.10161,West Saint Paul
845,1,11,200,40,0,0,US,44.80413,-93.16689,Eagan
846,2,30,618,184,3,0,GB,51.65,-0.2,Barnet
847,1,18,312,148,3,0,US,33.70918,-117.95367,Fountain Valley
848,1,18,308,148,3,0,US,33.96168,-118.35313,Inglewood
849,3,43,885,307,7,0,AU,-12.48602,130.9833,Palmerston
850,3,43,887,311,7,0,AU,-33.03268,137.56483,Whyalla
851,3,43,885,307,7,0,AU,-12.46113,130.84185,Darwin
852,3,43,885,305,7,0,AU,-23.69748,133.88362,Alice Springs
853,3,43,887,315,7,0,AU,-34.88241,138.5933,Prospect
854,1,23,384,153,3,0,US,39.50956,-76.16412,Aberdeen
855,1,15,277,130,3,0,US,40.08317,-74.06819,Point Pleasant
856,1,15,277,130,3,0,US,40.09789,-74.21764,Lakewood
857,1,14,255,112,3,0,US,35.139,-79.00603,Fort Bragg
858,1,14,260,112,3,0,US,33.81601,-78.68002,North Myrtle Beach
859,1,14,265,112,3,0,US,34.25628,-78.04471,Leland
860,1,11,203,98,3,0,US,42.36837,-83.35271,Livonia
861,1,11,202,81,3,0,US,40.05812,-82.40126,Newark
862,1,15,277,123,3,0,US,41.44593,-74.42293,Middletown
863,1,23,378,153,3,0,US,39.00622,-77.4286,Sterling
864,1,15,279,134,3,0,US,42.19454,-71.1995,Norwood
865,1,15,277,129,3,0,US,40.94399,-74.67072,Hopatcong Hills
866,1,18,321,148,3,0,US,33.14337,-117.16614,San Marcos
867,1,11,202,77,3,0,US,40.3634,-79.86644,West Mifflin
868,1,14,251,112,3,0,US,32.46402,-86.4597,Prattville
869,1,11,202,81,3,0,US,40.09923,-83.11408,Dublin
870,1,14,251,112,3,0,US,32.36681,-86.29997,Montgomery
871,1,18,321,148,3,0,US,33.11921,-117.08642,Escondido
872,1,11,202,77,3,0,US,40.4284,-79.69755,Murrysville
873,1,12,206,112,3,0,US,40.42331,-104.70913,Greeley
874,1,15,279,136,3,0,US,42.76537,-71.46757,Nashua
875,1,18,321,148,3,0,US,33.20004,-117.24254,Vista
876,2,29,601,184,3,0,IT,43.54427,10.32615,Livorno
877,1,16,285,148,3,0,US,30.46881,-87.23608,Brent
878,1,11,200,36,0,0,US,38.78922,-90.32261,Florissant
879,1,18,325,148,3,0,US,32.72532,-114.6244,Yuma
880,1,14,252,112,3,0,US,34.7304,-86.58594,Huntsville
881,1,16,286,148,3,0,US,30.42059,-86.61707,Fort Walton Beach
882,1,11,202,81,3,0,US,39.96118,-82.99879,Columbus
883,2,28,568,184,3,0,MC,43.73976,7.42732,Monte-Carlo
884,1,15,279,134,3,0,US,42.15843,-71.14477,Canton
885,1,11,202,81,3,0,US,39.88423,-82.7535,Pickerington
886,1,9,194,33,0,0,US,27.77086,-82.67927,St. Petersburg
887,1,13,227,112,3,0,US,33.10317,-96.67055,Allen
888,1,23,375,153,3,0,US,38.78872,-77.11276,Rose Hill
889,1,16,287,148,3,0,US,30.59019,-88.17084,Tillmans Corner
890,1,11,200,36,0,0,US,38.64255,-90.32373,Clayton
891,1,23,378,153,3,0,US,38.89428,-77.4311,Chantilly
892,1,11,202,77,3,0,US,40.44174,-79.88199,Wilkinsburg
893,1,15,276,112,3,0,US,40.79339,-77.86,State College
894,1,11,202,81,3,0,US,39.32924,-82.10126,Athens
895,1,15,279,144,3,0,US,43.66147,-70.25533,Portland
896,1,14,266,112,3,0,US,33.52066,-86.80249,Birmingham
897,1,15,279,144,3,0,US,43.63897,-70.31533,South Portland Gardens
898,1,18,321,148,3,0,US,32.96282,-117.03586,Poway
899,1,15,279,144,3,0,US,43.91452,-69.96533,Brunswick
900,1,13,227,112,3,0,US,32.93429,-97.07807,Grapevine
901,1,13,219,112,3,0,US,32.89953,-105.96027,Alamogordo
902,1,12,205,112,3,0,US,39.55388,-104.96943,Highlands Ranch
903,1,14,269,112,3,0,US,34.7698,-84.97022,Dalton
904,1,14,253,112,3,0,US,31.45046,-83.5085,Tifton
905,1,14,269,112,3,0,US,35.15952,-84.87661,Cleveland
906,1,14,269,112,3,0,US,34.50259,-84.95105,Calhoun
907,1,20,349,148,3,0,US,44.9429,-123.0351,Salem
908,1,20,336,148,3,0,US,40.58654,-122.39168,Redding
909,2,26,452,161,3,0,NL,52.98947,6.9504,Stadskanaal
910,2,26,452,161,3,0,NL,52.77917,6.90694,Emmen
911,2,27,499,161,3,0,DE,51.66166,6.96514,Dorsten
912,2,26,452,161,3,0,NL,53.16167,6.76111,Hoogezand
913,2,27,499,161,3,0,DE,51.45657,7.01228,Essen
914,2,27,499,161,3,0,DE,51.47805,6.8625,Oberhausen
915,2,27,487,161,3,0,DE,51.11721,8.06707,Lennestadt
916,2,27,487,161,3,0,DE,51.15473,8.28505,Schmallenberg
917,2,30,628,184,3,0,GB,50.90395,-1.40428,Southampton
918,2,27,499,161,3,0,DE,51.5388,7.22572,Herne
919,2,28,564,184,3,0,FR,49.4938,0.10767,Le Havre
920,2,27,519,161,3,0,DE,53.557,9.964,St. Pauli
921,2,26,457,161,3,0,BE,51.20892,3.22424,Brugge
922,2,26,452,161,3,0,NL,53.20139,5.80859,Leeuwarden
923,2,27,499,161,3,0,DE,51.29724,6.84929,Ratingen
924,1,14,254,112,3,0,US,35.67097,-80.47423,Salisbury
925,1,14,257,112,3,0,US,32.08354,-81.09983,Savannah
926,1,14,261,112,3,0,US,32.79407,-79.86259,Mount Pleasant
927,3,51,930,436,50,0,PH,14.55027,121.03269,Makati City
928,3,51,930,436,50,0,PH,14.6,120.9833,Quiapo
929,1,20,341,148,3,0,US,47.68149,-122.20874,Kirkland
930,2,26,448,161,3,0,NL,51.82083,4.77639,Sliedrecht
931,1,15,277,123,3,0,US,43.61062,-72.97261,Rutland
932,3,40,830,285,3,0,JP,34.68505,135.80485,Nara-shi
933,3,40,830,282,3,0,JP,34.78427,135.40126,Itami
934,3,40,841,289,3,0,JP,34.4,132.45,Hiroshima
935,3,40,830,282,3,0,JP,34.6913,135.183,Kobe
936,3,40,832,289,3,0,JP,35.78333,140.31667,Narita
937,1,23,383,153,3,0,US,38.02931,-78.47668,Charlottesville
938,1,23,383,153,3,0,US,38.14991,-79.0732,Staunton
939,1,15,279,134,3,0,US,42.46037,-71.34895,Concord
940,1,15,279,134,3,0,US,42.51954,-70.89672,Salem
941,1,15,279,137,3,0,US,42.52509,-71.75979,Leominster
942,1,15,279,137,3,0,US,42.58342,-71.8023,Fitchburg
943,1,15,279,136,3,0,US,42.70704,-71.16311,Lawrence
944,1,15,279,134,3,0,US,42.44732,-71.2245,Lexington
945,1,15,279,134,3,0,US,42.48509,-71.43284,Acton
946,2,32,723,235,3,0,ES,41.67419,2.79036,Blanes
947,2,32,724,244,3,0,ES,38.98068,1.30362,Sant Antoni de Portmany
948,2,32,723,235,3,0,ES,41.61381,2.65423,Calella
949,2,32,723,235,3,0,ES,41.69993,2.84565,Lloret de Mar
950,2,32,723,232,3,0,ES,41.98311,2.82493,Girona
951,2,32,724,244,3,0,ES,38.90883,1.43296,Ibiza
952,2,32,723,235,3,0,ES,41.64662,2.74135,Malgrat de Mar
953,2,32,723,226,3,0,ES,41.37452,2.16326,Poble Sec
954,1,17,296,148,3,0,US,36.91023,-121.75689,Watsonville
955,1,17,293,148,3,0,US,37.38522,-122.11413,Los Altos
956,1,15,277,124,3,0,US,40.78788,-74.01431,West New York
957,1,15,277,124,3,0,US,40.69538,-73.99375,Brooklyn Heights
958,1,17,293,148,3,0,US,37.36605,-121.82718,Alum Rock
959,3,50,926,391,9,0,IN,19.23496,72.85976,Borivli
960,2,30,618,184,3,0,GB,51.5,-0.11667,City of Westminster
961,2,32,723,230,3,0,ES,41.23506,1.81193,Sitges
962,2,32,723,233,3,0,ES,41.15612,1.10687,Reus
963,2,32,723,226,3,0,ES,41.40408,2.17332,Sagrada Família
964,1,23,375,153,3,0,US,38.71678,-77.13276,Woodlawn
965,1,23,375,153,3,0,US,38.73289,-77.05803,Fort Hunt
966,1,19,328,148,3,0,US,33.61171,-111.71736,Fountain Hills
967,0,7,160,15,0,0,AR,-34.57365,-58.44924,Colegiales
968,2,32,725,253,3,0,ES,40.47366,-3.57777,Barajas de Madrid
969,2,29,606,184,3,0,IT,40.68907,14.52036,Gragnano
970,2,29,606,184,3,0,IT,40.78931,14.36806,Torre del Greco
971,2,32,723,226,3,0,ES,41.39606,2.16688,Dreta de l'Eixample
972,2,29,606,184,3,0,IT,41.03064,14.29868,Marcianise
973,2,29,606,184,3,0,IT,40.85216,14.26811,Naples
974,1,15,277,124,3,0,US,40.81,-73.9625,Morningside Heights
975,1,15,277,122,3,0,US,41.08871,-74.01347,Nanuet
976,1,15,277,132,3,0,US,40.87676,-73.32456,East Northport
977,1,15,277,128,3,0,US,41.13121,-74.36737,West Milford
978,1,15,277,128,3,0,US,41.05732,-74.14098,Ramsey
979,1,15,277,132,3,0,US,40.84288,-73.29289,Commack
980,2,32,722,213,3,0,ES,37.18817,-3.60667,Granada
981,1,15,277,125,3,0,US,40.79343,-73.41512,Melville
982,1,12,208,112,3,0,US,45.78329,-108.50069,Billings
983,1,15,277,125,3,0,US,40.86815,-73.42568,Huntington
984,1,12,209,112,3,0,US,43.82602,-111.78969,Rexburg
985,1,15,279,140,3,0,US,41.27954,-72.59843,Madison
986,1,15,277,125,3,0,US,40.76843,-73.52513,Hicksville
987,1,15,277,125,3,0,US,40.76177,-73.32929,Deer Park
988,1,12,208,112,3,0,US,44.08054,-103.23101,Rapid City
989,1,22,372,153,3,0,US,42.90339,-78.75475,Cheektowaga
990,1,15,277,125,3,0,US,40.85343,-73.41151,Huntington Station
991,1,15,277,125,3,0,US,40.75566,-73.58763,Westbury
992,1,22,372,153,3,0,US,42.82561,-78.82337,Lackawanna
993,1,15,279,141,3,0,US,41.76204,-72.74204,West Hartford
994,2,27,521,161,3,0,RO,44.85,24.86667,Piteşti
995,1,11,202,85,3,0,US,41.39838,-81.80458,Brook Park
996,1,15,277,121,3,0,US,41.03287,-73.84291,Greenburgh
997,1,22,374,153,3,0,CA,43.10012,-79.06627,Niagara Falls
998,2,27,521,163,3,0,RO,44.43225,26.10626,Bucharest
999,1,22,372,153,3,0,US,42.88645,-78.87837,Buffalo
1000,3,48,896,356,7,0,TH,17.31597,99.83186,Sawankhalok
1001,2,27,521,161,3,0,RO,45.95646,23.571,Sebeş
1002,2,29,608,184,3,0,RO,44.31667,23.8,Craiova
1003,1,15,277,124,3,0,US,40.56233,-74.13986,Staten Island
1004,2,27,521,163,3,0,RO,44.49239,26.04831,Sector 1
1005,3,48,892,356,7,0,TH,14.35167,100.57739,Phra Nakhon Si Ayutthaya
1006,1,15,279,134,3,0,US,42.25288,-71.00227,Quincy
1007,1,15,277,121,3,0,US,40.95833,-73.80861,Eastchester
1008,1,15,277,128,3,0,US,41.08871,-74.14376,Mahwah
1009,1,15,277,125,3,0,US,40.6976,-73.42512,North Amityville
1010,1,15,277,125,3,0,US,40.82621,-73.50207,Syosset
1011,1,15,277,125,3,0,US,40.72371,-73.70485,Floral Park
1012,1,9,193,19,0,0,US,25.95648,-80.13921,Aventura
1013,1,9,193,19,0,0,US,25.96231,-80.17671,Ives Estates
1014,2,26,450,161,3,0,NL,52.155,5.3875,Amersfoort
1015,2,32,726,260,3,0,ES,43.34943,-4.04785,Torrelavega
1016,2,32,725,257,3,0,ES,43.29568,-5.68416,Sama
1017,2,32,725,257,3,0,ES,43.25,-5.76667,Mieres
1018,2,32,725,254,3,0,ES,42.54664,-6.59619,Ponferrada
1019,2,32,725,257,3,0,ES,43.36029,-5.84476,Oviedo
1020,2,26,450,161,3,0,NL,52.22,5.48611,Nijkerk
1021,2,29,606,184,3,0,IT,40.34923,14.99067,Agropoli
1022,2,26,450,161,3,0,NL,52.22333,5.17639,Hilversum
1023,2,26,450,161,3,0,NL,52.3075,5.04167,Weesp
1024,2,26,450,161,3,0,NL,52.21167,5.2875,Baarn
1025,2,26,450,161,3,0,NL,51.69833,5.97361,Gennep
1026,2,29,601,184,3,0,IT,44.103,9.82375,La Spezia
1027,2,29,601,184,3,0,IT,43.77925,11.24626,Florence
1028,2,29,601,184,3,0,IT,43.42107,11.12739,Colle di Val d'Elsa
1029,1,24,393,157,3,0,MX,19.44361,-99.10499,Venustiano Carranza
1030,0,0,1,0,0,0,CO,4.33646,-74.36378,Fusagasugá
1031,1,24,412,157,3,0,MX,27.57916,-109.9298,Esperanza
1032,0,0,4,0,0,0,CO,4.81333,-75.69611,Pereira
1033,0,0,4,0,0,0,CO,4.56639,-75.75111,Montenegro
1034,0,0,4,0,0,0,CO,4.62306,-75.76278,Quimbaya
1035,0,0,4,0,0,0,CO,4.52949,-75.64091,Calarcá
1036,0,0,4,0,0,0,CO,4.45265,-75.78746,La Tebaida
1037,3,40,832,289,3,0,JP,35.65924,139.54837,Chōfu
1038,3,40,833,289,3,0,JP,36.56667,139.88333,Utsunomiya
1039,3,40,830,284,3,0,JP,35.0,135.86667,Ōtsu
1040,3,40,838,289,3,0,JP,35.38333,136.26667,Nagahama
1041,3,40,830,286,3,0,JP,33.73333,135.98333,Shingū
1042,3,40,833,289,3,0,JP,36.75,139.61667,Nikkō
1043,3,40,832,289,3,0,JP,35.43333,139.65,Yokohama
1044,3,40,834,289,3,0,JP,35.1,138.86667,Numazu
1045,3,40,841,289,3,0,JP,34.28333,132.26667,Ōno-hara
1046,3,40,842,289,3,0,JP,36.13333,137.25,Takayama
1047,3,40,830,286,3,0,JP,34.23333,135.16667,Wakayama
1048,3,40,830,284,3,0,JP,34.96545,135.70415,Mukō
1049,3,40,832,289,3,0,JP,35.34926,139.47666,Fujisawa
1050,3,40,838,289,3,0,JP,35.42291,136.76039,Gifu-shi
1051,3,40,830,283,3,0,JP,34.81667,134.7,Himeji
1052,3,40,830,286,3,0,JP,34.31667,135.61667,Hashimoto
1053,3,40,830,286,3,0,JP,33.73333,135.36667,Tanabe
1054,3,51,932,458,50,0,PH,10.34076,123.90261,Apas
1055,3,40,838,289,3,0,JP,35.18147,136.90641,Nagoya
1056,3,40,830,284,3,0,JP,35.02954,135.75666,Kamigyō-ku
1057,3,40,835,289,3,0,JP,35.65,138.63333,Isawa
1058,3,51,930,436,50,0,PH,14.53748,121.00144,Pasay
1059,3,40,838,289,3,0,JP,35.36667,136.53333,Tarui
1060,3,40,841,289,3,0,JP,34.35,132.33333,Hatsukaichi
1061,3,40,839,289,3,0,JP,34.75,137.91667,Fukuroi
1062,3,40,840,289,3,0,JP,36.75,138.36667,Nakano
1063,3,40,842,289,3,0,JP,36.7,137.21667,Toyama
1064,3,40,842,289,3,0,JP,36.53333,136.61667,Nonoichi
1065,3,40,842,289,3,0,JP,36.7,137.36667,Kamiichi
1066,3,40,830,284,3,0,JP,34.89044,135.80325,Uji
1067,3,40,830,282,3,0,JP,34.81641,135.56828,Ibaraki
1068,3,40,834,289,3,0,JP,35.08834,139.05325,Atami
1069,3,40,830,287,3,0,JP,35.49576,135.74604,Obama
1070,3,40,834,289,3,0,JP,35.15,139.06667,Yugawara
1071,3,40,841,289,3,0,JP,35.5,134.23333,Tottori
1072,3,40,832,289,3,0,JP,35.27651,139.57733,Hayama
1073,3,40,840,289,3,0,JP,36.23333,137.96667,Matsumoto
1074,3,49,920,356,7,0,SG,1.28967,103.85007,Singapore
1075,3,40,835,289,3,0,JP,35.7,138.73333,Enzan
1076,2,36,767,274,3,0,ES,27.91174,-15.54071,Santa Lucía
1077,2,36,768,274,3,0,ES,28.65851,-17.91821,Los Llanos de Aridane
1078,2,36,768,274,3,0,ES,28.68351,-17.76421,Santa Cruz de la Palma
1079,2,36,767,274,3,0,ES,28.09973,-15.41343,Las Palmas de Gran Canaria
1080,2,27,499,161,3,0,DE,51.44362,7.35258,Witten
1081,2,27,489,161,3,0,DE,49.75565,6.63935,Trier
1082,2,27,487,161,3,0,DE,51.98589,9.25246,Bad Pyrmont
1083,2,27,489,161,3,0,DE,49.44331,6.63874,Merzig
1084,2,27,486,161,3,0,DE,49.96034,9.77239,Karlstadt
1085,2,27,487,161,3,0,DE,51.27561,8.873,Korbach
1086,2,27,487,161,3,0,DE,51.11963,9.12475,Bad Wildungen
1087,2,27,511,161,3,0,DE,48.78232,9.17702,Stuttgart
1088,2,27,489,161,3,0,DE,49.70045,6.57652,Konz
1089,2,27,489,161,3,0,DE,49.98596,6.89308,Wittlich
1090,2,27,488,161,3,0,DE,50.23085,7.58992,Boppard
1091,2,27,499,161,3,0,DE,51.51494,7.466,Dortmund
1092,2,27,489,161,3,0,DE,49.71443,7.30776,Idar-Oberstein
1093,2,27,498,161,3,0,DE,50.90383,7.40306,Much
1094,2,27,490,161,3,0,DE,49.19884,9.5072,Öhringen
1095,2,27,511,161,3,0,DE,48.68212,9.01171,Böblingen
1096,2,27,485,161,3,0,DE,49.96675,7.8992,Bingen am Rhein
1097,2,27,487,161,3,0,DE,51.0589,8.80077,Frankenberg
1098,2,27,487,161,3,0,DE,51.37819,10.13744,Heilbad Heiligenstadt
1099,2,27,486,161,3,0,DE,50.87197,9.70891,Bad Hersfeld
1100,3,43,887,308,7,0,AU,-37.69047,144.74172,Hillside
1101,3,43,887,311,7,0,AU,-36.75818,144.28024,Bendigo
1102,3,43,885,302,3,0,AU,-32.92715,151.77647,Newcastle
1103,3,43,887,308,7,0,AU,-37.79117,144.81637,Sunshine West
1104,3,43,885,297,3,0,AU,-33.94185,150.8717,Prestons
1105,3,43,887,313,7,0,AU,-37.89138,144.62368,Wyndham Vale
1106,3,43,887,313,7,0,AU,-37.88413,144.78367,Altona Meadows
1107,3,43,887,313,7,0,AU,-37.91482,144.75088,Point Cook
1108,3,43,887,308,7,0,AU,-37.76722,144.76657,Deer Park
1109,3,43,887,308,7,0,AU,-37.8676,144.98099,Saint Kilda
1110,3,43,887,311,7,0,AU,-38.38176,142.48799,Warrnambool
1111,3,43,887,308,7,0,AU,-37.74981,144.9109,Essendon
1112,3,43,885,298,3,0,AU,-33.71028,150.95095,Kellyville
1113,3,43,887,308,7,0,AU,-37.71667,145.0,Reservoir
1114,3,43,887,308,7,0,AU,-37.7,144.93333,Glenroy
1115,1,22,370,150,3,0,CA,47.02895,-65.50186,Miramichi
1116,1,22,370,149,3,0,CA,46.09454,-64.7965,Moncton
1117,1,22,370,151,3,0,CA,44.77599,-63.67865,Lower Sackville
1118,1,22,370,150,3,0,CA,45.36685,-63.26538,Truro
1119,1,22,370,150,3,0,CA,47.3737,-68.32512,Edmundston
1120,1,22,370,151,3,0,CA,44.64533,-63.57239,Halifax
1121,1,22,370,152,3,0,CA,46.1351,-60.1831,Sydney
1122,1,22,370,150,3,0,CA,45.58344,-62.64863,New Glasgow
1123,1,22,364,148,3,0,CA,42.98339,-81.23304,London
1124,1,22,370,152,3,0,CA,46.19695,-59.95698,Glace Bay
1125,1,15,277,124,3,0,US,40.60538,-73.75513,Far Rockaway
1126,1,10,195,36,0,0,PR,18.44134,-66.11822,Cataño
1127,2,34,754,274,3,0,GR,37.96727,23.99684,Artémida
1128,2,34,757,274,3,0,GR,35.32787,25.14341,Irákleion
1129,1,24,393,157,3,0,MX,19.44506,-99.14612,Cuauhtémoc
1130,1,13,222,112,3,0,MX,31.72024,-106.46084,Juárez
1131,1,13,222,112,3,0,US,31.75872,-106.48693,El Paso
1132,1,17,291,148,3,0,US,37.55855,-122.27108,Foster City
1133,1,14,258,112,3,0,US,34.82984,-82.60152,Easley
1134,1,17,291,148,3,0,US,37.52021,-122.2758,Belmont
1135,1,17,303,148,3,0,US,37.74159,-121.12438,Ripon
1136,1,17,293,148,3,0,US,37.46883,-122.14108,East Palo Alto
1137,2,31,665,184,3,0,FI,66.5,25.71667,Rovaniemi
1138,1,17,294,148,3,0,US,37.52966,-122.04024,Newark
1139,1,20,335,148,3,0,US,42.32652,-122.87559,Medford
1140,1,11,201,60,0,0,US,41.9217,-87.64783,Lincoln Park
1141,1,11,202,85,3,0,US,41.47394,-81.53707,Shaker Heights
1142,1,11,202,85,3,0,US,41.52311,-81.51846,South Euclid
1143,1,11,200,40,0,0,US,45.62163,-94.20694,Sartell
1144,1,11,202,85,3,0,US,41.52005,-81.55624,Cleveland Heights
1145,1,20,356,148,3,0,US,47.67768,-116.78047,Coeur d'Alene
1146,1,11,203,98,3,0,US,42.22226,-83.3966,Romulus
1147,1,11,200,48,0,0,US,46.87386,-96.76951,Moorhead
1148,1,11,203,98,3,0,US,42.27756,-83.74088,Ann Arbor
1149,1,11,200,48,0,0,US,46.87719,-96.7898,Fargo
1150,1,12,208,112,3,0,US,44.79719,-106.95618,Sheridan
1151,1,11,203,98,3,0,US,42.24115,-83.61299,Ypsilanti
1152,1,11,201,65,0,0,US,42.25863,-87.84063,Lake Forest
1153,1,11,201,64,0,0,US,41.57587,-87.17615,Portage
1154,1,11,200,40,0,0,US,44.86136,-92.62381,River Falls
1155,1,11,203,100,3,0,US,42.86947,-85.64475,Kentwood
1156,1,12,208,112,3,0,US,46.87918,-102.78962,Dickinson
1157,1,17,293,148,3,0,US,37.28717,-121.94996,Campbell
1158,1,11,201,73,3,0,US,43.07305,-89.40123,Madison
1159,1,11,201,73,3,0,US,43.1836,-89.21373,Sun Prairie
1160,1,11,202,77,3,0,US,40.55951,-79.95867,Allison Park
1161,3,42,871,291,3,0,CN,40.12175,116.64783,Shunyi
1162,3,42,871,291,3,0,CN,39.9075,116.39723,Beijing
1163,1,20,341,148,3,0,US,47.57065,-122.22207,Mercer Island
1164,1,14,246,112,3,0,US,35.20453,-89.87398,Bartlett
1165,1,18,308,148,3,0,US,34.14251,-118.25508,Glendale
1166,1,17,292,148,3,0,US,37.80437,-122.2708,Oakland
1167,2,30,637,184,3,0,GB,53.72861,-0.57215,Brough
1168,2,30,637,184,3,0,GB,53.7446,-0.33525,Kingston upon Hull
1169,1,15,279,134,3,0,US,42.33343,-71.04949,South Boston
1170,2,27,466,161,3,0,DE,52.52635,13.33903,Moabit
1171,2,30,637,184,3,0,GB,53.70324,-0.87732,Goole
1172,2,27,466,161,3,0,DE,52.51708,13.27636,Westend
1173,3,43,885,298,3,0,AU,-33.79677,151.12436,North Ryde
1174,2,31,664,184,3,0,FI,60.29414,25.04099,Vantaa
1175,2,30,637,184,3,0,GB,54.27966,-0.40443,Scarborough
1176,2,30,637,184,3,0,GB,53.39302,-1.45789,Burngreave
1177,2,28,550,174,3,0,FR,48.86667,2.41667,Bagnolet
1178,2,27,485,161,3,0,DE,50.11552,8.68417,Frankfurt am Main
1179,1,18,321,148,3,0,US,32.71571,-117.16472,San Diego
1180,2,30,624,184,3,0,GB,52.21667,-0.26667,Saint Neots
1181,2,30,637,184,3,0,GB,53.78333,-1.06667,Selby
1182,2,30,624,184,3,0,GB,52.2,0.11667,Cambridge
1183,2,30,637,184,3,0,GB,52.91149,-0.64184,Grantham
1184,2,28,550,175,3,0,FR,48.89389,2.28864,Levallois-Perret
1185,2,32,723,226,3,0,ES,41.41309,2.21736,el Besòs i el Maresme
1186,2,30,637,184,3,0,GB,53.06667,-0.81667,Newark on Trent
1187,2,27,505,161,3,0,DE,48.06489,11.66327,Ottobrunn
1188,2,28,550,175,3,0,FR,48.91882,2.25404,Colombes
1189,2,27,505,161,3,0,DE,48.15221,11.61585,Bogenhausen
1190,2,30,642,184,3,0,GB,52.6386,-1.13169,Leicester
1191,2,30,637,184,3,0,GB,54.08306,-0.19192,Bridlington
1192,2,32,723,226,3,0,ES,41.38125,2.11744,la Maternitat i Sant Ramon
1193,2,28,550,176,3,0,FR,48.72692,2.28301,Massy
1194,2,30,618,184,3,0,GB,51.43158,-0.55239,Egham
1195,2,29,593,184,3,0,IT,45.49185,9.29812,Segrate
1196,2,29,593,184,3,0,IT,45.66019,8.79164,Gallarate
1197,2,29,593,184,3,0,IT,45.46427,9.18951,Milan
1198,2,26,449,161,3,0,NL,52.30083,4.86389,Amstelveen
1199,2,30,637,184,3,0,GB,53.32213,-0.94315,Retford
1200,2,27,466,161,3,0,DE,52.48388,13.3477,Berlin Schöneberg
1201,2,27,495,161,3,0,DE,49.56798,10.88565,Herzogenaurach
1202,1,23,388,153,3,0,US,37.52487,-77.55777,Bon Air
1203,1,23,384,153,3,0,US,39.18316,-76.64024,Ferndale
1204,1,23,390,153,3,0,US,36.85293,-75.97799,Virginia Beach
1205,1,23,388,153,3,0,US,37.65042,-77.61249,Short Pump
1206,1,16,282,148,3,0,US,30.22409,-92.01984,Lafayette
1207,1,16,281,148,3,0,US,30.50463,-90.46293,Hammond
1208,1,13,230,112,3,0,US,29.77606,-95.11465,Channelview
1209,1,16,283,148,3,0,US,30.45075,-91.15455,Baton Rouge
1210,1,15,275,112,3,0,US,42.81424,-73.93957,Schenectady
1211,1,15,275,112,3,0,US,42.68313,-73.77845,West Albany
1212,1,15,277,124,3,0,US,40.66677,-73.88236,East New York
1213,1,24,393,157,3,0,MX,19.33212,-99.21118,Magdalena Contreras
1214,1,24,393,157,3,0,MX,19.38611,-99.16204,Colonia del Valle
1215,1,24,393,157,3,0,MX,19.3467,-99.16174,Coyoacán
1216,2,26,455,161,3,0,BE,50.87959,4.70093,Leuven
1217,2,26,456,161,3,0,BE,50.48657,4.18785,La Louvière
1218,2,26,454,161,3,0,BE,50.63373,5.56749,Liège
1219,1,24,412,157,3,0,MX,23.2329,-106.4062,Mazatlán
1220,1,24,414,157,3,0,MX,25.53718,-103.52456,Ciudad Lerdo
1221,1,20,345,148,3,0,US,47.03426,-122.82319,Lacey
1222,1,20,341,148,3,0,US,47.81954,-122.17624,North Creek
1223,1,12,205,112,3,0,US,40.16721,-105.10193,Longmont
1224,1,20,341,148,3,0,US,47.10399,-122.43457,Spanaway
1225,1,20,341,148,3,0,US,47.76232,-122.2054,Bothell
1226,1,18,324,148,3,0,US,33.73974,-116.41279,Rancho Mirage
1227,1,18,324,148,3,0,US,33.77974,-116.46529,Cathedral City
1228,1,15,277,124,3,0,US,40.72927,-73.98736,East Village
1229,1,15,277,124,3,0,US,40.6701,-73.98597,Park Slope
1230,1,20,341,148,3,0,US,47.67399,-122.12151,Redmond
1231,1,12,208,112,3,0,US,47.50024,-111.30081,Great Falls
1232,1,18,308,148,3,0,US,34.01945,-118.49119,Santa Monica
1233,1,18,312,148,3,0,US,33.77391,-117.94145,Garden Grove
1234,1,20,338,148,3,0,US,40.80207,-124.16367,Eureka
1235,1,18,321,148,3,0,US,32.9156,-117.14392,Mira Mesa
1236,1,18,313,148,3,0,US,33.85835,-118.06479,Cerritos
1237,1,18,312,148,3,0,US,33.74557,-117.86783,Santa Ana
1238,1,20,340,148,3,0,CA,48.44963,-123.50261,Langford
1239,1,15,276,116,3,0,US,40.04622,-75.35991,Radnor
1240,1,23,378,153,3,0,US,38.89511,-77.21165,Idylwood
1241,1,15,276,117,3,0,US,39.93484,-75.03073,Cherry Hill
1242,2,32,721,202,3,0,PT,38.75328,-9.14397,Alvalade
1243,0,1,23,0,0,0,PE,-16.39889,-71.535,Arequipa
1244,0,1,23,0,0,0,PE,-13.52264,-71.96734,Cusco
1245,0,6,146,15,0,0,CL,-33.45694,-70.64827,Santiago
1246,0,7,167,15,0,0,AR,-24.7859,-65.41166,Salta
1247,0,1,30,0,0,0,PE,-12.13588,-77.00742,Santiago de Surco
1248,1,13,227,112,3,0,US,32.81402,-96.94889,Irving
1249,1,13,231,112,3,0,US,34.74648,-92.28959,Little Rock
1250,3,40,841,289,3,0,JP,35.48333,133.05,Matsue
1251,1,14,262,112,3,0,US,35.78682,-78.66389,West Raleigh
1252,1,13,231,112,3,0,US,34.76954,-92.26709,North Little Rock
1253,1,14,262,112,3,0,US,35.99403,-78.89862,Durham
1254,1,14,262,112,3,0,US,35.73265,-78.85029,Apex
1255,1,15,279,134,3,0,US,42.29732,-71.43701,Framingham Center
1256,2,32,726,261,3,0,ES,43.26615,-1.97615,Hernani
1257,2,32,726,261,3,0,ES,43.31195,-1.90234,Errenteria
1258,1,17,305,148,3,0,US,38.76323,-121.16384,Granite Bay
1259,1,17,305,148,3,0,US,38.58046,-121.53023,West Sacramento
1260,1,20,343,148,3,0,US,48.05176,-122.17708,Marysville
1261,1,17,296,148,3,0,US,36.98356,-121.98052,Live Oak
1262,1,25,445,161,3,0,US,19.72991,-155.09073,Hilo
1263,1,17,301,148,3,0,US,36.77579,-121.66967,Prunedale
1264,1,17,305,148,3,0,US,38.68574,-121.37217,North Highlands
1265,1,18,317,148,3,0,US,34.05529,-117.75228,Pomona
1266,1,17,297,148,3,0,US,37.97798,-122.03107,Concord
1267,1,17,294,148,3,0,US,37.77993,-121.97802,San Ramon
1268,2,30,618,184,3,0,GB,51.36969,-0.36693,Esher
1269,1,17,298,148,3,0,US,38.35658,-121.98774,Vacaville
1270,2,30,626,184,3,0,GB,51.3624,-0.30427,Chessington
1271,2,30,619,184,3,0,GB,51.21444,-0.80054,Farnham
1272,2,30,626,184,3,0,GB,51.36803,-0.3065,Hook
1273,2,30,618,184,3,0,GB,51.39148,-0.29825,Surbiton
1274,2,30,618,184,3,0,GB,51.40065,-0.2617,New Malden
1275,2,30,619,184,3,0,GB,51.28333,-0.83333,Fleet
1276,1,20,341,148,3,0,US,47.62621,-122.52124,Bainbridge Island
1277,1,20,341,148,3,0,US,47.74427,-122.07735,Cottage Lake
1278,1,20,346,148,3,0,US,48.75955,-122.48822,Bellingham
1279,1,20,339,148,3,0,CA,49.10635,-122.82509,Surrey
1280,1,17,304,148,3,0,US,39.53491,-119.75269,Sparks
1281,2,30,633,184,3,0,IE,53.18194,-6.79667,Droichead Nua
1282,2,30,633,184,3,0,IE,52.84083,-6.92611,Carlow
1283,2,30,633,184,3,0,IE,52.355,-7.70389,Cluain Meala
1284,2,30,618,184,3,0,GB,51.87113,0.15868,Bishops Stortford
1285,2,30,634,184,3,0,GB,54.52337,-6.03527,Lisburn
1286,2,30,633,184,3,0,IE,52.65417,-7.25222,Kilkenny
1287,2,30,627,184,3,0,GB,50.99769,-0.10313,Haywards Heath
1288,2,27,490,161,3,0,DE,49.00937,8.40444,Karlsruhe
1289,2,27,472,161,3,0,DE,48.69676,8.13523,Bühl
1290,1,17,294,148,3,0,US,37.66243,-121.87468,Pleasanton
1291,1,17,294,148,3,0,US,37.68187,-121.76801,Livermore
1292,1,17,294,148,3,0,US,37.54827,-121.98857,Fremont
1293,1,17,294,148,3,0,US,37.82159,-121.99996,Danville
1294,1,17,291,148,3,0,US,37.61383,-122.48692,Pacifica
1295,1,20,349,148,3,0,US,44.91928,-123.31705,Dallas
1296,1,20,349,148,3,0,US,44.53651,-122.90703,Lebanon
1297,1,20,348,148,3,0,US,45.14373,-122.85537,Woodburn
1298,1,17,299,148,3,0,US,37.1305,-121.65439,Morgan Hill
1299,1,17,297,148,3,0,US,37.90631,-122.06496,Walnut Creek
1300,1,17,294,148,3,0,US,37.66882,-122.0808,Hayward
1301,1,9,194,25,0,0,US,28.14029,-81.45841,Poinciana
1302,1,15,279,144,3,0,US,44.80118,-68.77781,Bangor
1303,1,15,276,116,3,0,US,40.23093,-75.52212,Limerick
1304,1,13,230,112,3,0,US,29.99883,-95.1766,Atascocita
1305,1,13,230,112,3,0,US,30.03355,-95.26104,Kingwood Area
1306,1,13,230,112,3,0,US,30.07994,-95.41716,Spring
1307,1,13,230,112,3,0,US,30.15799,-95.48938,The Woodlands
1308,1,9,193,19,0,0,US,26.05731,-80.27172,Cooper City
1309,1,9,193,18,0,0,US,26.13421,-80.23184,Plantation
1310,1,9,193,19,0,0,US,25.89009,-80.18671,North Miami
1311,2,32,723,226,3,0,ES,41.34357,2.03659,Sant Boi de Llobregat
1312,1,23,384,153,3,0,US,39.084,-76.70025,Odenton
1313,1,24,391,153,3,0,MX,21.17429,-86.84656,Cancún
1314,1,24,391,154,3,0,MX,20.66667,-88.56667,Chichén-Itzá
1315,2,30,633,184,3,0,IE,53.43333,-7.95,Athlone
1316,2,30,618,184,3,0,GB,51.41709,0.06858,Chislehurst
1317,1,15,276,118,3,0,US,39.40206,-75.03934,Millville
1318,1,15,276,118,3,0,US,39.38984,-74.52404,Pleasantville
1319,1,24,393,157,3,0,MX,19.49392,-99.11075,Gustavo Adolfo Madero
1320,2,30,624,184,3,0,GB,52.05917,1.15545,Ipswich
1321,1,24,415,157,3,0,MX,20.617,-105.23018,Puerto Vallarta
1322,1,24,415,157,3,0,MX,20.71641,-105.20487,Ixtapa
1323,2,30,641,184,3,0,GB,52.44859,-2.04938,Halesowen
1324,2,30,641,184,3,0,GB,52.33574,-2.05983,Bromsgrove
1325,1,22,362,148,3,0,CA,43.65421,-79.56711,Etobicoke
1326,1,11,201,70,1,0,US,44.08861,-87.65758,Manitowoc
1327,1,11,201,72,3,0,US,42.95974,-87.86147,Cudahy
1328,2,30,641,184,3,0,GB,52.11161,-2.32515,Great Malvern
1329,2,30,641,184,3,0,GB,52.18935,-2.22001,Worcester
1330,2,30,641,184,3,0,GB,52.33976,-2.28034,Stourport-on-Severn
1331,2,30,641,184,3,0,GB,52.38819,-2.25,Kidderminster
1332,2,30,641,184,3,0,GB,52.45,-1.81667,Acocks Green
1333,2,33,736,268,3,0,TR,37.86014,27.25713,Kuşadası
1334,2,33,736,268,3,0,TR,38.41273,27.13838,İzmir
1335,2,30,641,184,3,0,GB,52.5,-1.88333,Aston
1336,2,26,454,161,3,0,NL,50.97417,5.82917,Geleen
1337,2,26,454,161,3,0,NL,50.84833,5.68889,Maastricht
1338,2,30,622,184,3,0,GB,51.7311,0.67463,Maldon
1339,2,30,639,184,3,0,GB,53.81667,-3.05,Blackpool
1340,2,30,639,184,3,0,GB,53.87389,-3.02244,Thornton-Cleveleys
1341,2,30,631,184,3,0,GB,51.45523,-2.59665,Bristol
1342,2,30,643,184,3,0,GB,55.90137,-4.4057,Clydebank
1343,2,30,618,184,3,0,GB,51.52866,-0.35508,Greenford
1344,2,37,774,274,3,0,ZA,-25.99636,28.2268,Tembisa
1345,2,30,641,184,3,0,GB,52.5,-2.08333,Dudley
1346,2,30,641,184,3,0,GB,52.28333,-1.58333,Warwick
1347,2,30,641,184,3,0,GB,52.09237,-1.94887,Evesham
1348,2,37,774,274,3,0,ZA,-26.14095,28.15247,Edenvale
1349,2,30,631,184,3,0,GB,51.64087,-2.67683,Chepstow
1350,2,30,631,184,3,0,GB,51.86568,-2.2431,Gloucester
1351,1,12,205,112,3,0,US,39.57916,-104.87692,Centennial
1352,1,11,203,100,3,0,US,42.96336,-85.66809,Grand Rapids
1353,1,11,203,100,3,0,US,42.91336,-85.70531,Wyoming
1354,1,13,232,112,3,0,US,26.18924,-98.15529,San Juan
1355,1,13,223,112,3,0,US,30.57881,-97.85307,Leander
1356,1,13,223,112,3,0,US,29.88327,-97.94139,San Marcos
1357,1,13,224,112,3,0,US,29.56523,-98.3364,Live Oak
1358,1,20,349,148,3,0,US,44.56457,-123.26204,Corvallis
1359,1,20,348,148,3,0,US,45.42067,-122.67065,Lake Oswego
1360,1,20,348,148,3,0,US,45.43123,-122.77149,Tigard
1361,2,26,449,161,3,0,NL,52.37125,4.53306,Zandvoort
1362,2,26,449,161,3,0,NL,52.54833,4.66944,Castricum
1363,2,30,631,184,3,0,GB,51.34603,-2.97665,Weston-super-Mare
1364,2,30,644,184,3,0,GB,50.11861,-5.53715,Penzance
1365,2,30,633,184,3,0,IE,52.84361,-8.98639,Ennis
1366,2,30,633,184,3,0,IE,53.27194,-9.04889,Gaillimh
1367,1,12,216,112,3,0,US,37.67748,-113.06189,Cedar City
1368,1,19,331,148,3,0,US,33.4356,-112.3496,Avondale
1369,1,19,328,148,3,0,US,33.50921,-111.89903,Scottsdale
1370,2,30,629,184,3,0,GB,50.72048,-1.8795,Bournemouth
1371,3,43,884,294,3,0,NZ,-36.8,174.75,North Shore
1372,3,43,884,294,3,0,NZ,-36.84853,174.76349,Auckland
1373,3,43,884,294,3,0,NZ,-36.96807,174.79875,Mangere
1374,3,43,884,291,3,0,NZ,-41.27078,173.28404,Nelson
1375,1,20,348,148,3,0,US,45.38401,-122.76399,Tualatin
1376,1,20,345,148,3,0,US,47.03787,-122.9007,Olympia
1377,2,30,645,184,3,0,GB,51.08022,-4.05808,Barnstaple
1378,1,18,320,148,3,0,US,36.0397,-114.98194,Henderson
1379,1,18,320,148,3,0,US,36.02525,-115.24194,Enterprise
1380,2,31,669,184,3,0,NO,59.91273,10.74609,Oslo
1381,2,30,645,184,3,0,GB,51.01678,-4.20832,Bideford
1382,1,24,407,157,3,0,MX,20.64091,-103.29327,Tlaquepaque
1383,1,24,407,157,3,0,MX,20.66682,-103.39182,Guadalajara
1384,2,31,674,184,3,0,LT,54.70972,25.25053,Šeškinė
1385,2,31,662,184,3,0,LT,54.39635,24.04142,Alytus
1386,2,31,674,184,3,0,LT,54.69981,25.18393,Pilaitė
1387,2,31,674,184,3,0,LT,54.73333,25.24167,Fabijoniškės
1388,2,30,621,184,3,0,GB,51.87967,-0.41748,Luton
1389,1,14,250,112,3,0,US,34.13216,-84.30067,Milton
1390,1,14,250,112,3,0,US,34.07538,-84.29409,Alpharetta
1391,1,15,277,124,3,0,US,40.64548,-74.01241,Sunset Park
1392,1,11,201,60,0,0,US,41.90003,-87.6345,Near North Side
1393,1,11,203,98,3,0,US,42.5467,-83.21132,Birmingham
1394,1,23,384,153,3,0,US,39.27205,-76.73192,Catonsville
1395,2,26,459,161,3,0,FR,50.72374,2.53729,Hazebrouck
1396,1,18,308,148,3,0,US,34.09834,-118.32674,Hollywood
1397,1,15,279,141,3,0,US,41.78232,-72.61203,East Hartford
1398,1,15,279,134,3,0,US,42.33704,-71.20922,Newton
1399,1,15,279,143,3,0,US,41.80065,-73.12122,Torrington
1400,1,10,196,36,0,0,DO,18.61501,-68.70798,Salvaleón de Higüey
1401,2,30,633,184,3,0,IE,52.66472,-8.62306,Luimneach
1402,2,31,664,184,3,0,FI,61.05,25.43333,Hollola
1403,2,27,529,168,3,0,CH,46.84986,9.53287,Chur
1404,2,27,529,168,3,0,CH,47.17242,8.51745,Zug
1405,2,27,529,168,3,0,CH,47.45152,8.58491,Kloten
1406,2,29,593,184,3,0,IT,45.55048,9.07741,Arese
1407,2,31,652,184,3,0,DK,56.15674,10.21076,Århus
1408,2,29,601,184,3,0,IT,43.31822,11.33064,Siena
1409,2,29,601,184,3,0,IT,43.71795,10.94758,Empoli
1410,2,29,601,184,3,0,IT,43.67954,10.84975,San Miniato
1411,2,27,506,161,3,0,DE,47.86825,12.64335,Traunstein
1412,2,27,502,161,3,0,AT,48.30639,14.28611,Linz
1413,2,27,503,161,3,0,AT,47.41427,9.74195,Dornbirn
1414,2,29,593,184,3,0,IT,46.16852,9.87134,Sondrio
1415,1,22,363,148,3,0,CA,44.00012,-77.24946,Prince Edward
1416,1,19,332,148,3,0,US,32.22174,-110.92648,Tucson
1417,1,12,214,112,3,0,US,36.72806,-108.21869,Farmington
1418,1,19,329,148,3,0,US,35.19807,-111.65127,Flagstaff
1419,1,19,328,148,3,0,US,33.35283,-111.78903,Gilbert
1420,1,12,214,112,3,0,US,39.06387,-108.55065,Grand Junction
1421,1,13,233,112,3,0,US,36.37285,-94.20882,Bentonville
1422,1,13,231,112,3,0,US,34.81509,-92.22432,Sherwood
1423,1,12,214,112,3,0,US,38.47832,-107.87617,Montrose
1424,1,12,205,112,3,0,US,39.75554,-105.2211,Golden
1425,1,12,205,112,3,0,US,39.88554,-104.9872,Northglenn
1426,1,12,205,112,3,0,US,39.83776,-105.00137,Sherrelwood
1427,1,12,207,112,3,0,US,38.44098,-105.24245,Cañon City
1428,1,11,202,90,3,0,US,40.42587,-86.90807,West Lafayette
1429,1,17,295,148,3,0,US,38.29714,-122.28553,Napa
1430,1,15,279,142,3,0,US,41.39482,-73.45401,Danbury
1431,1,15,279,135,3,0,US,41.44718,-71.52494,South Kingstown
1432,1,11,202,84,3,0,US,38.14118,-85.68774,Okolona
1433,1,11,202,84,3,0,US,38.28562,-85.82413,New Albany
1434,1,15,279,135,3,0,US,41.54566,-71.29144,Middletown
1435,1,15,279,140,3,0,US,41.3776,-71.82729,Westerly
1436,1,11,202,91,3,0,US,39.76838,-86.15804,Indianapolis
1437,1,15,279,135,3,0,US,41.82186,-71.50675,Johnston
1438,1,11,202,84,3,0,US,38.29674,-85.75996,Clarksville
1439,1,11,202,84,3,0,US,38.16007,-85.65968,Newburg
1440,2,34,754,274,3,0,GR,37.8332,23.80311,Vári
1441,2,34,754,274,3,0,GR,37.89013,23.74406,Ellinikó
1442,1,22,362,148,3,0,CA,43.68341,-79.76633,Brampton
1443,1,15,275,112,3,0,US,43.1009,-75.23266,Utica
1444,1,15,275,112,3,0,US,42.93869,-74.18819,Amsterdam
1445,1,12,210,112,3,0,US,40.69946,-99.08148,Kearney
1446,1,15,275,112,3,0,US,42.78702,-73.97096,Rotterdam
1447,1,15,275,112,3,0,US,43.21285,-75.45573,Rome
1448,3,43,885,305,7,0,AU,-16.92366,145.76613,Cairns
1449,3,43,886,308,7,0,AU,-32.05632,115.74557,Fremantle
1450,3,43,885,304,3,0,AU,-27.56056,151.95386,Toowoomba
1451,3,43,886,308,7,0,AU,-32.14607,116.0093,Armadale
1452,3,43,886,308,7,0,AU,-31.84062,115.89549,Ballajura
1453,2,28,559,184,3,0,FR,43.63333,3.9,Castelnau-le-Lez
1454,2,28,551,184,3,0,FR,47.7996,3.57033,Auxerre
1455,2,32,723,232,3,0,ES,42.26199,3.17689,Roses
1456,2,28,550,171,3,0,FR,48.70522,2.39147,Athis-Mons
1457,2,26,454,161,3,0,BE,50.66415,5.62346,Herstal
1458,2,28,556,184,3,0,FR,43.94834,4.80892,Avignon
1459,2,26,454,161,3,0,BE,50.59994,5.44471,Flémalle-Haute
1460,2,26,451,161,3,0,BE,50.80745,4.9378,Tienen
1461,2,28,575,184,3,0,FR,47.18144,-1.54965,Rezé
1462,2,28,550,172,3,0,FR,48.86415,2.44322,Montreuil
1463,2,28,566,184,3,0,FR,45.67452,6.39061,Albertville
1464,2,28,559,184,3,0,FR,43.6181,4.00739,Mauguio
1465,2,28,559,184,3,0,FR,43.61092,3.87723,Montpellier
1466,2,28,560,184,3,0,FR,46.31407,4.82823,Mâcon
1467,2,28,550,176,3,0,FR,48.71489,2.31638,Chilly-Mazarin
1468,2,28,559,184,3,0,FR,43.56752,3.9046,Lattes
1469,2,32,723,232,3,0,ES,41.91738,3.1631,Palafrugell
1470,2,28,556,184,3,0,FR,44.56151,6.08106,Gap
1471,2,28,560,184,3,0,FR,45.98333,4.71667,Villefranche-sur-Saône
1472,2,28,550,171,3,0,FR,48.82104,2.27718,Issy-les-Moulineaux
1473,2,28,551,184,3,0,FR,49.41794,2.82606,Compiègne
1474,2,28,550,171,3,0,FR,48.78716,2.40332,Vitry-sur-Seine
1475,2,32,724,245,3,0,ES,39.41667,-0.38333,Alfafar
1476,2,28,575,184,3,0,FR,47.21725,-1.55336,Nantes
1477,2,27,472,161,3,0,DE,48.53241,8.07864,Oberkirch
1478,2,32,726,263,3,0,ES,43.29639,-2.98813,Barakaldo
1479,2,27,529,168,3,0,CH,47.37752,8.52127,Zürich (Kreis 4) / Aussersihl
1480,2,27,476,161,3,0,DE,53.8922,10.64713,Stockelsdorf
1481,2,27,465,161,3,0,DE,52.98569,10.08756,Munster
1482,2,27,519,161,3,0,DE,53.56667,10.08333,Marienthal
1483,2,27,486,161,3,0,DE,51.70662,9.99997,Northeim
1484,2,31,651,184,3,0,DK,55.64152,12.08035,Roskilde
1485,2,31,652,184,3,0,DK,55.40276,11.35459,Slagelse
1486,2,31,651,184,3,0,DK,55.45802,12.18214,Køge
1487,2,27,519,161,3,0,DE,53.55,10.01667,Hamburg-Mitte
1488,2,31,653,184,3,0,DK,55.22992,11.76092,Næstved
1489,2,31,653,184,3,0,DK,54.76906,11.87425,Nykøbing Falster
1490,2,26,450,161,3,0,NL,52.38583,6.275,Raalte
1491,2,26,450,161,3,0,NL,51.8425,5.85278,Nijmegen
1492,2,27,499,161,3,0,DE,51.1397,7.21583,Wermelskirchen
1493,2,26,450,161,3,0,NL,51.91917,5.84167,Elst
1494,2,26,450,161,3,0,NL,52.13917,5.04167,Maarssen
1495,1,11,203,96,3,0,CA,48.46686,-81.33312,Timmins
1496,1,20,352,148,3,0,CA,52.26682,-113.802,Red Deer
1497,1,22,362,148,3,0,CA,44.40011,-79.66634,Barrie
1498,2,26,450,161,3,0,NL,52.255,6.16389,Deventer
1499,2,26,450,161,3,0,NL,51.69917,5.30417,'s-Hertogenbosch
1500,2,26,450,161,3,0,NL,51.98,5.91111,Arnhem
1501,2,26,448,161,3,0,NL,52.045,4.65139,Waddinxveen
1502,2,26,450,161,3,0,NL,52.1325,5.43194,Leusden
1503,2,27,494,161,3,0,DE,51.47221,11.29533,Sangerhausen
1504,2,26,450,161,3,0,NL,52.03333,5.65833,Ede
1505,2,27,494,161,3,0,DE,51.33962,12.37129,Leipzig
1506,2,27,502,161,3,0,AT,48.1229,14.87206,Amstetten
1507,2,27,465,161,3,0,DE,52.15705,10.4154,Salzgitter
1508,2,27,497,161,3,0,DE,51.06863,7.00387,Opladen
1509,2,26,450,161,3,0,NL,52.34167,5.62083,Harderwijk
1510,2,26,450,161,3,0,NL,51.37,6.16806,Venlo
1511,2,26,450,161,3,0,NL,51.3575,5.31806,Eersel
1512,2,26,450,161,3,0,NL,51.94667,6.01389,Duiven
1513,2,30,618,184,3,0,GB,51.39822,-0.19837,Morden
1514,2,30,628,184,3,0,GB,51.06513,-1.3187,Winchester
1515,2,30,628,184,3,0,GB,50.79509,-1.12902,Gosport
1516,2,30,629,184,3,0,GB,50.71429,-1.98458,Poole
1517,2,30,619,184,3,0,GB,51.26249,-1.08708,Basingstoke
1518,2,30,642,184,3,0,GB,52.96667,-1.18333,Basford
1519,1,9,194,33,0,0,US,27.86614,-82.32648,Riverview
1520,2,30,641,184,3,0,GB,52.37092,-1.26417,Rugby
1521,2,30,618,184,3,0,GB,51.06314,-0.32757,Horsham
1522,2,30,627,184,3,0,GB,50.82838,-0.13947,Brighton
1523,1,14,269,112,3,0,US,35.06535,-85.24912,East Chattanooga
1524,1,15,279,135,3,0,US,41.82399,-71.41283,Providence
1525,1,14,247,112,3,0,US,36.30477,-86.62,Hendersonville
1526,2,31,652,184,3,0,DK,55.39594,10.38831,Odense
1527,1,11,201,60,0,0,US,41.84559,-87.75394,Cicero
1528,2,31,652,184,3,0,DK,55.86066,9.85034,Horsens
1529,1,14,269,112,3,0,US,35.04563,-85.30968,Chattanooga
1530,1,11,203,100,3,0,US,42.95947,-85.48975,Forest Hills
1531,1,11,203,102,3,0,US,43.59781,-84.76751,Mount Pleasant
1532,1,9,194,28,0,0,US,29.65163,-82.32483,Gainesville
1533,1,9,194,29,0,0,US,28.08363,-80.60811,Melbourne
1534,1,22,365,148,3,0,US,43.15478,-77.61556,Rochester
1535,1,12,205,112,3,0,US,39.80832,-104.93387,Commerce City
1536,1,12,205,112,3,0,US,39.72943,-104.83192,Aurora
1537,1,11,202,86,3,0,US,41.44894,-82.70796,Sandusky
1538,1,16,281,148,3,0,US,29.91465,-90.05396,Gretna
1539,1,11,201,73,3,0,US,42.96083,-89.46984,Fitchburg
1540,1,11,201,72,3,0,US,42.9614,-88.01259,Greenfield
1541,1,11,201,72,3,0,US,42.88863,-88.03842,Franklin
1542,1,11,201,70,2,0,US,44.26193,-88.41538,Appleton
1543,1,14,269,112,3,0,US,35.01424,-85.2519,East Ridge
1544,1,14,269,112,3,0,US,34.99591,-85.15023,East Brainerd
1545,1,14,247,112,3,0,US,35.92506,-86.86889,Franklin
1546,1,15,277,125,3,0,US,40.68038,-73.45512,Massapequa Park
1547,1,15,277,125,3,0,US,40.66288,-73.55152,Merrick
1548,2,26,450,161,3,0,NL,51.81,5.24444,Zaltbommel
1549,2,26,450,161,3,0,NL,51.955,5.22778,Culemborg
1550,2,26,449,161,3,0,NL,52.3075,4.97222,Amsterdam-Zuidoost
1551,2,26,450,161,3,0,NL,51.88083,5.28889,Geldermalsen
1552,2,32,722,210,3,0,ES,38.21896,-2.98069,Campiña
1553,2,26,450,161,3,0,NL,51.44083,5.47778,Eindhoven
1554,2,32,722,215,3,0,ES,36.72016,-4.42034,Málaga
1555,2,30,632,184,3,0,GB,52.86195,-3.05497,Oswestry
1556,2,26,450,161,3,0,NL,51.80917,5.725,Wijchen
1557,2,26,450,161,3,0,NL,52.20667,4.8625,Mijdrecht
1558,2,26,450,161,3,0,NL,51.60794,4.7915,Hoge Vucht
1559,2,26,450,161,3,0,NL,51.65333,5.2875,Vught
1560,1,12,211,112,3,0,US,43.54997,-96.70033,Sioux Falls
1561,1,15,279,136,3,0,US,42.99564,-71.45479,Manchester
1562,1,15,279,134,3,0,US,42.3751,-70.98283,Winthrop
1563,1,15,279,136,3,0,US,42.78842,-71.20089,Salem
1564,1,15,279,137,3,0,US,42.0751,-72.03341,Southbridge
1565,1,20,341,148,3,0,US,47.05288,-122.29428,Graham
1566,1,20,341,148,3,0,US,47.18538,-122.2929,Puyallup
1567,1,20,341,148,3,0,US,47.35818,-122.12216,Covington
1568,1,20,343,148,3,0,US,47.81065,-122.37736,Edmonds
1569,2,30,643,184,3,0,GB,56.33871,-2.79902,Saint Andrews
1570,2,30,643,184,3,0,GB,56.19514,-3.17316,Glenrothes
1571,1,18,312,148,3,0,US,33.81696,-118.03729,Cypress
1572,1,18,313,148,3,0,US,33.94001,-118.13257,Downey
1573,1,11,200,49,0,0,US,37.02089,-93.20602,Ozark
1574,1,11,200,51,0,0,US,40.8,-96.66696,Lincoln
1575,1,14,246,112,3,0,US,35.14648,-90.18454,West Memphis
1576,1,11,200,46,0,0,US,39.76861,-94.84663,Saint Joseph
1577,1,11,200,46,0,0,US,38.76279,-93.73605,Warrensburg
1578,1,12,205,112,3,0,US,39.98526,-104.82053,Brighton
1579,1,14,246,112,3,0,US,35.8423,-90.70428,Jonesboro
1580,1,13,224,112,3,0,US,30.04743,-99.14032,Kerrville
1581,1,18,312,148,3,0,US,33.74141,-118.10479,Seal Beach
1582,1,20,348,148,3,0,US,45.44623,-122.63926,Milwaukie
1583,1,20,341,148,3,0,US,47.60444,-122.03768,City of Sammamish
1584,1,12,205,112,3,0,US,39.64777,-104.98776,Englewood
1585,1,11,201,60,0,0,US,41.89381,-87.67493,West Town
1586,1,11,201,66,0,0,US,42.12114,-88.25786,Carpentersville
1587,1,23,385,153,3,0,US,38.77428,-76.07633,Easton
1588,1,17,300,148,3,0,US,37.91576,-122.31164,El Cerrito
1589,1,17,300,148,3,0,US,37.93576,-122.34775,Richmond
1590,1,18,314,148,3,0,US,34.09529,-118.12701,Alhambra
1591,1,18,314,148,3,0,US,34.08057,-118.07285,Rosemead
1592,1,20,346,148,3,0,US,48.5126,-122.61267,Anacortes
1593,1,20,337,148,3,0,US,43.2165,-123.34174,Roseburg
1594,3,48,892,356,7,0,TH,13.86075,100.51477,Mueang Nonthaburi
1595,1,17,305,148,3,0,US,38.61713,-121.32828,Carmichael
1596,2,28,556,184,3,0,FR,44.12489,4.08082,Alès
1597,2,28,556,184,3,0,FR,44.55838,4.75094,Montélimar
1598,1,17,294,148,3,0,US,37.72493,-122.15608,San Leandro
1599,2,27,530,168,3,0,CH,47.05048,8.30635,Luzern
1600,2,29,593,184,3,0,IT,45.64933,9.60617,Dalmine
1601,2,38,797,274,3,0,SA,24.68773,46.72185,Riyadh
1602,1,11,200,40,0,0,US,44.92496,-93.46273,Hopkins
1603,1,17,305,148,3,0,US,38.58157,-121.4944,Sacramento
1604,1,17,298,148,3,0,US,38.23825,-122.04024,Suisun
1605,3,40,832,289,3,0,JP,35.73333,140.83333,Hasaki
1606,3,48,892,356,7,0,TH,13.51825,99.95469,Damnoen Saduak
1607,1,20,357,148,3,0,US,42.22487,-121.78167,Klamath Falls
1608,3,48,892,356,7,0,TH,13.65855,100.53362,Phra Pradaeng
1609,3,48,892,356,7,0,TH,13.41456,100.00264,Samut Songkhram
1610,1,12,207,112,3,0,US,38.83388,-104.82136,Colorado Springs
1611,1,11,200,40,0,0,US,44.97997,-93.26384,Minneapolis
1612,1,18,324,148,3,0,US,34.11417,-116.43224,Yucca Valley
1613,1,20,348,148,3,0,US,45.51984,-123.11066,Forest Grove
1614,1,17,303,148,3,0,US,37.76659,-120.84715,Oakdale
1615,1,20,335,148,3,0,US,42.37596,-122.91643,Central Point
1616,1,20,341,148,3,0,US,47.56732,-122.63264,Bremerton
1617,1,15,277,126,3,0,US,40.6976,-74.2632,Union
1618,1,15,277,121,3,0,US,41.16287,-73.86152,Ossining
1619,1,15,277,127,3,0,US,40.51872,-74.4121,Edison
1620,1,13,227,112,3,0,US,32.91262,-96.63888,Garland
1621,1,15,277,126,3,0,US,40.71562,-74.36468,Summit
1622,1,15,277,126,3,0,US,40.6301,-74.42737,North Plainfield
1623,1,20,354,148,3,0,CA,53.55014,-113.46871,Edmonton
1624,1,22,361,148,3,0,CA,43.36679,-80.94972,Stratford
1625,1,15,277,128,3,0,US,40.79871,-74.23904,West Orange
1626,2,28,556,184,3,0,FR,44.1599,4.61776,Bagnols-sur-Cèze
1627,2,26,450,161,3,0,NL,51.5075,5.39028,Best
1628,2,26,450,161,3,0,NL,51.58656,4.77596,Breda
1629,2,26,450,161,3,0,NL,51.61667,5.54861,Veghel
1630,2,26,450,161,3,0,NL,51.55551,5.0913,Tilburg
1631,2,26,450,161,3,0,NL,51.48167,5.66111,Helmond
1632,2,26,450,161,3,0,NL,52.37917,5.78611,Nunspeet
1633,2,32,721,198,3,0,PT,37.13856,-8.53775,Portimão
1634,2,32,721,198,3,0,PT,37.13772,-8.01968,Loulé
1635,2,32,721,198,3,0,PT,37.10202,-8.67422,Lagos
1636,2,32,721,198,3,0,PT,37.08819,-8.2503,Albufeira
1637,2,32,721,198,3,0,PT,37.01869,-7.92716,Faro
1638,2,26,450,161,3,0,NL,52.95988,4.75933,Den Helder
1639,1,24,416,157,3,0,MX,23.05888,-109.69771,San José del Cabo
1640,2,37,787,274,3,0,ZA,-34.05515,18.47617,Retreat
1641,1,22,374,153,3,0,CA,43.17126,-79.24267,St. Catharines
1642,2,37,787,274,3,0,ZA,-33.84808,18.71723,Kraaifontein
1643,2,37,774,274,3,0,ZA,-26.26786,28.12225,Alberton
1644,2,37,774,274,3,0,ZA,-26.2119,27.97322,Riverlea
1645,1,15,277,121,3,0,US,41.03399,-73.76291,White Plains
1646,1,15,277,132,3,0,US,40.80204,-72.84094,Mastic
1647,1,15,277,124,3,0,US,40.66094,-73.92014,Brownsville
1648,1,11,203,96,3,0,CA,46.51677,-84.33325,Sault Ste. Marie
1649,1,15,279,142,3,0,US,41.14149,-73.3579,Westport
1650,1,22,366,148,3,0,CA,45.48341,-73.59918,Westmount
1651,1,11,201,61,0,0,US,42.04114,-87.69006,Evanston
1652,1,22,366,148,3,0,CA,45.58773,-73.59501,Saint-Léonard
1653,1,23,375,153,3,0,US,38.80484,-77.04692,Alexandria
1654,1,15,276,120,3,0,US,40.23126,-74.67223,Mercerville-Hamilton Square
1655,1,15,279,134,3,0,US,42.5001,-70.85783,Marblehead
1656,1,13,227,112,3,0,US,32.94124,-97.13418,Southlake
1657,1,18,309,148,3,0,US,33.74446,-118.38702,Rancho Palos Verdes
1658,1,15,277,124,3,0,US,40.79472,-73.9425,East Harlem
1659,1,15,277,123,3,0,US,41.70037,-73.92097,Poughkeepsie
1660,1,11,203,98,3,0,US,42.33143,-83.04575,Detroit
1661,1,14,262,112,3,0,US,35.91014,-79.07529,Carrboro
1662,2,32,722,216,3,0,ES,37.38594,-6.05258,Castilleja de la Cuesta
1663,2,32,722,213,3,0,ES,37.23088,-3.6551,Albolote
1664,1,18,308,148,3,0,US,34.07362,-118.40036,Beverly Hills
1665,2,30,627,184,3,0,GB,50.81795,-0.37538,Worthing
1666,1,12,211,112,3,0,US,43.70943,-98.0298,Mitchell
1667,1,12,205,112,3,0,US,39.70471,-105.08137,Lakewood
1668,1,11,203,96,3,0,US,46.09273,-88.64235,Iron River
1669,1,12,205,112,3,0,US,39.57582,-105.11221,Ken Caryl
1670,1,14,247,112,3,0,US,36.32311,-86.71333,Goodlettsville
1671,1,12,205,112,3,0,US,39.7661,-105.07721,Wheat Ridge
1672,1,11,202,82,3,0,US,39.64284,-84.28661,Miamisburg
1673,1,13,225,112,3,0,US,31.09823,-97.34278,Temple
1674,1,11,200,46,0,0,US,39.09973,-94.57857,Kansas City
1675,1,9,194,31,0,0,US,31.14995,-81.49149,Brunswick
1676,1,9,194,29,0,0,US,28.07168,-80.65339,West Melbourne
1677,1,15,279,134,3,0,US,42.46676,-70.94949,Lynn
1678,1,15,279,134,3,0,US,42.40843,-71.05366,Everett
1679,1,23,385,153,3,0,US,38.97845,-76.49218,Annapolis
1680,1,17,299,148,3,0,US,37.00578,-121.56828,Gilroy
1681,3,48,898,356,7,0,TH,19.90858,99.8325,Chiang Rai
1682,3,48,907,356,7,0,TH,7.91779,98.33322,Kathu
1683,3,48,893,356,7,0,TH,16.541,104.05004,Kuchinarai
1684,3,48,907,356,7,0,TH,8.07257,98.91052,Krabi
1685,3,43,887,308,7,0,AU,-37.85995,145.05489,Glen Iris
1686,2,32,725,257,3,0,ES,43.53573,-5.66152,Gijón
1687,2,32,726,265,3,0,ES,42.6865,-2.94695,Miranda de Ebro
1688,2,32,726,263,3,0,ES,43.32842,-3.03248,Santurtzi
1689,2,32,725,257,3,0,ES,43.54035,-5.68233,Natahoyo
1690,1,23,389,153,3,0,US,37.4032,-79.17808,West Lynchburg
1691,1,13,227,112,3,0,US,32.83707,-97.08195,Euless
1692,1,18,312,148,3,0,US,33.74585,-117.82617,Tustin
1693,1,17,297,148,3,0,US,37.94798,-122.0608,Pleasant Hill
1694,2,28,569,184,3,0,CH,46.23424,6.08025,Meyrin
1695,1,12,205,112,3,0,US,39.58471,-104.90109,Castlewood
1696,2,28,566,184,3,0,CH,46.22739,7.35559,Sitten
1697,3,47,890,333,7,0,ID,-8.5413,115.12522,Tabanan
1698,1,17,294,148,3,0,US,37.6941,-122.08635,Castro Valley
1699,2,30,633,184,3,0,IE,53.2859,-6.37344,Tallaght
1700,2,30,618,184,3,0,GB,51.76338,-0.22419,Hatfield
1701,1,11,202,76,3,0,US,38.94312,-84.54411,Independence
1702,1,11,200,36,0,0,US,38.78394,-90.48123,Saint Charles
1703,1,11,200,36,0,0,US,38.43283,-90.37762,Arnold
1704,1,11,200,36,0,0,US,38.71311,-90.42984,Maryland Heights
1705,1,11,200,38,0,0,US,39.48309,-88.37283,Mattoon
1706,1,11,200,36,0,0,US,38.59255,-90.35734,Webster Groves
1707,1,11,200,36,0,0,US,38.81061,-90.69985,O'Fallon
1708,1,11,200,36,0,0,US,38.80033,-90.62651,Saint Peters
1709,1,12,205,112,3,0,US,39.58721,-104.95276,Southglenn
1710,1,12,205,112,3,0,US,39.97776,-105.13193,Louisville
1711,1,12,206,112,3,0,US,40.39776,-105.07498,Loveland
1712,1,11,202,85,3,0,US,41.38978,-81.44123,Solon
1713,1,12,205,112,3,0,US,39.5186,-104.76136,Parker
1714,2,31,664,184,3,0,FI,60.12381,24.43853,Kirkkonummi
1715,2,31,664,184,3,0,FI,60.24859,24.06534,Lohja
1716,1,12,208,112,3,0,US,44.29109,-105.50222,Gillette
1717,2,30,634,184,3,0,GB,54.65983,-5.90858,Newtownabbey
1718,2,30,633,184,3,0,IE,52.27042,-9.70264,Tralee
1719,2,31,667,184,3,0,FI,60.38333,23.13333,Salo
1720,2,32,725,251,3,0,ES,40.06667,-2.13333,Cuenca
1721,2,32,724,242,3,0,ES,36.76419,-2.61475,Roquetas de Mar
1722,2,32,725,252,3,0,ES,38.76211,-3.38483,Valdepeñas
1723,3,43,887,313,7,0,AU,-37.9,144.66667,Werribee
1724,3,43,887,313,7,0,AU,-37.88264,144.7003,Hoppers Crossing
1725,3,43,885,296,3,0,AU,-33.7457,151.04764,West Pennant Hills
1726,3,43,887,308,7,0,AU,-37.75,145.35,Lilydale
1727,3,43,887,313,7,0,AU,-37.83634,144.65952,Tarneit
1728,2,30,647,184,3,0,GB,54.9981,-7.30934,Derry
1729,2,30,643,184,3,0,GB,58.21901,-6.38803,Isle of Lewis
1730,2,28,550,171,3,0,FR,48.93872,2.46138,Le Blanc-Mesnil
1731,2,30,617,184,3,0,GB,51.08169,1.16734,Folkestone
1732,2,30,630,184,3,0,GB,51.58774,-2.99835,Newport
1733,2,26,459,161,3,0,FR,50.68568,2.88214,Armentières
1734,2,30,632,184,3,0,GB,53.1905,-2.89189,Chester
1735,2,30,632,184,3,0,GB,53.09787,-2.44161,Crewe
1736,2,30,643,184,3,0,GB,58.98465,-2.95953,Orkney
1737,0,2,47,0,0,0,BR,-23.68611,-46.62278,Diadema
1738,0,4,103,15,0,0,BR,-3.73611,-38.65306,Caucaia
1739,0,2,59,0,0,0,BR,-22.88583,-48.445,Botucatu
1740,0,2,76,0,0,0,BR,-20.32972,-40.2925,Vila Velha
1741,0,2,47,0,0,0,BR,-23.46278,-46.53333,Guarulhos
1742,0,2,61,0,0,0,BR,-22.97889,-49.87056,Ourinhos
1743,0,4,110,15,0,0,BR,-7.77639,-34.89222,Itapissuma
1744,0,4,110,15,0,0,BR,-8.05389,-34.88111,Recife
1745,0,2,77,6,0,0,BR,-19.92083,-43.93778,Belo Horizonte
1746,0,2,77,6,0,0,BR,-20.52334,-43.69486,Ouro Branco
1747,1,15,279,136,3,0,US,42.81259,-70.87728,Newburyport
1748,1,15,279,134,3,0,US,42.03343,-71.21894,Mansfield
1749,1,14,247,112,3,0,US,36.02506,-86.77917,Brentwood Estates
1750,1,9,194,31,0,0,US,30.73051,-81.54649,St. Marys
1751,2,28,569,184,3,0,CH,46.46299,6.84345,Vevey
1752,2,27,505,161,3,0,DE,48.10537,11.76825,Vaterstetten
1753,2,26,450,161,3,0,NL,52.525,5.71806,Dronten
1754,2,27,474,161,3,0,FR,48.58392,7.74553,Strasbourg
1755,2,27,502,161,3,0,AT,48.04274,14.42127,Steyr
1756,2,28,576,184,3,0,FR,48.68439,6.18496,Nancy
1757,2,27,501,161,3,0,AT,47.07,15.39871,Eggenberg
1758,2,27,472,161,3,0,FR,47.8109,7.32756,Wittenheim
1759,2,27,486,161,3,0,DE,49.79391,9.95121,Würzburg
1760,2,27,532,168,3,0,CH,47.1921,7.39586,Grenchen
1761,2,26,454,161,3,0,BE,50.4669,4.86746,Namur
1762,2,28,555,184,3,0,FR,47.69332,2.63094,Gien
1763,2,27,529,168,3,0,CH,47.35785,8.50296,Zürich (Kreis 3)
1764,2,27,529,168,3,0,CH,47.38245,8.47993,Zürich (Kreis 9)
1765,2,28,555,184,3,0,FR,46.98956,3.159,Nevers
1766,2,26,449,161,3,0,NL,52.33964,4.96256,Diemen
1767,2,27,529,168,3,0,CH,47.30997,8.52462,Adliswil
1768,2,26,450,161,3,0,NL,51.6225,5.43194,Schijndel
1769,2,27,529,168,3,0,CH,47.19625,8.52954,Baar
1770,2,27,529,168,3,0,CH,47.40165,8.40015,Dietikon
1771,2,27,499,161,3,0,DE,50.99258,6.57128,Bedburg
1772,2,26,449,161,3,0,NL,52.38084,4.63683,Haarlem
1773,2,26,449,161,3,0,NL,52.34992,4.62301,Heemstede
1774,2,26,450,161,3,0,NL,52.21,5.96944,Apeldoorn
1775,2,27,532,168,3,0,CH,46.94809,7.44744,Bern
1776,2,29,609,184,3,0,IT,41.05997,17.09001,Mola di Bari
1777,2,29,609,184,3,0,IT,40.66599,16.60463,Matera
1778,2,29,606,184,3,0,IT,40.90975,14.38316,Pomigliano d'Arco
1779,2,29,609,184,3,0,IT,40.96836,17.11329,Conversano
1780,2,29,609,184,3,0,IT,40.5769,16.75655,Ginosa
1781,2,29,606,184,3,0,IT,40.74574,14.49698,Pompei
1782,2,29,606,184,3,0,IT,40.69954,14.70773,Cava Dè Tirreni
1783,2,29,606,184,3,0,IT,40.67545,14.79328,Salerno
1784,2,29,610,184,3,0,IT,40.73913,13.951,Ischia Porto
1785,2,29,611,184,3,0,IT,37.08343,15.15332,Floridia
1786,2,29,611,184,3,0,IT,37.7244,15.18165,Giarre
1787,2,29,611,184,3,0,IT,37.49223,15.07041,Catania
1788,2,28,569,184,3,0,CH,46.80237,7.15128,Fribourg
1789,2,28,566,184,3,0,CH,46.29192,7.53559,Sierre
1790,2,30,633,184,3,0,IE,51.89797,-8.47061,Cork
1791,2,30,618,184,3,0,GB,51.80174,-0.20691,Welwyn Garden City
1792,2,30,618,184,3,0,GB,51.24048,-0.17044,Redhill
1793,2,30,618,184,3,0,GB,51.69353,-0.17835,Potters Bar
1794,2,30,633,184,3,0,IE,53.53333,-7.35,An Muileann gCearr
1795,2,27,490,161,3,0,DE,49.40768,8.69079,Heidelberg
1796,2,27,495,161,3,0,DE,49.30481,10.5931,Ansbach
1797,2,32,724,249,3,0,ES,39.56964,3.20955,Manacor
1798,2,28,560,184,3,0,FR,45.77726,4.77481,Écully
1799,2,32,723,230,3,0,ES,41.21667,1.53333,El Vendrell
1800,2,32,724,249,3,0,ES,39.49093,2.89108,Llucmajor
1801,2,32,724,249,3,0,ES,39.4696,3.14831,Felanitx
1802,1,9,193,23,0,0,US,27.29393,-80.35033,Port Saint Lucie
1803,2,27,486,161,3,0,DE,51.31667,9.5,Kassel
1804,2,28,555,184,3,0,FR,42.69764,2.89541,Perpignan
1805,2,28,561,184,3,0,FR,47.03333,4.83333,Beaune
1806,2,27,465,161,3,0,DE,51.89095,10.17847,Seesen
1807,2,27,476,161,3,0,DE,54.10707,10.8145,Neustadt in Holstein
1808,2,32,723,233,3,0,ES,41.11118,1.14764,Vila-seca
1809,2,32,723,232,3,0,ES,42.11667,2.76667,Banyoles
1810,2,32,723,233,3,0,ES,41.28612,1.24993,Valls
1811,2,27,485,161,3,0,DE,50.13423,8.91418,Hanau am Main
1812,2,32,723,233,3,0,ES,41.11667,1.25,Tarragona
1813,2,32,723,232,3,0,ES,42.18096,2.49012,Olot
1814,1,18,324,148,3,0,US,33.72255,-116.37697,Palm Desert
1815,2,27,465,161,3,0,DE,52.23495,9.85411,Sarstedt
1816,2,27,534,168,3,0,DE,48.39279,10.01112,Neu-Ulm
1817,2,27,519,161,3,0,DE,53.58374,9.69835,Wedel
1818,2,27,465,161,3,0,DE,52.86147,9.5926,Walsrode
1819,2,31,660,184,3,0,LV,56.968,23.77038,Jūrmala
1820,2,26,450,161,3,0,NL,51.93,6.07083,Zevenaar
1821,1,15,277,127,3,0,US,40.4976,-74.48849,Somerset
1822,1,14,262,112,3,0,US,35.65127,-78.83362,Holly Springs
1823,1,14,262,112,3,0,US,35.82348,-78.82556,Morrisville
1824,1,23,390,153,3,0,US,36.2946,-76.25105,Elizabeth City
1825,1,15,276,116,3,0,US,40.24537,-75.64963,Pottstown
1826,1,15,276,112,3,0,US,40.33565,-75.92687,Reading
1827,1,23,378,153,3,0,US,38.90122,-77.26526,Vienna
1828,1,20,341,148,3,0,US,47.25288,-122.44429,Tacoma
1829,1,20,341,148,3,0,US,47.64454,-122.69487,Silverdale
1830,1,20,338,148,3,0,US,40.86652,-124.08284,Arcata
1831,1,17,305,148,3,0,US,38.67796,-121.17606,Folsom
1832,1,18,324,148,3,0,US,33.7207,-116.21677,Indio
1833,1,18,324,148,3,0,US,33.66336,-116.31001,La Quinta
1834,1,9,193,19,0,0,US,25.82176,-80.24116,Brownsville
1835,1,13,230,112,3,0,US,29.71106,-95.59633,Alief
1836,1,13,230,112,3,0,US,29.71801,-95.43383,West University Place
1837,2,31,652,184,3,0,DK,55.04434,9.41741,Aabenraa
1838,2,31,654,184,3,0,DK,57.05877,9.92284,Nørresundby
1839,1,15,279,141,3,0,US,41.77593,-72.52148,Manchester
1840,1,15,277,121,3,0,US,41.29009,-73.92042,Peekskill
1841,1,15,277,128,3,0,US,40.82593,-74.20903,Montclair
1842,1,15,276,115,3,0,US,39.93067,-75.32019,Springfield
1843,1,15,279,139,3,0,US,41.63622,-70.93421,New Bedford
1844,1,15,279,135,3,0,US,41.4901,-71.31283,Newport
1845,1,15,277,121,3,0,US,40.91149,-73.78235,New Rochelle
1846,1,15,277,128,3,0,US,40.93121,-73.89875,Yonkers
1847,1,14,265,112,3,0,US,34.22573,-77.94471,Wilmington
1848,1,9,194,32,0,0,US,26.14234,-81.79596,Naples
1849,1,15,277,128,3,0,US,40.94454,-74.07542,Paramus
1850,1,15,279,142,3,0,US,41.27621,-72.86843,East Haven
1851,1,15,277,123,3,0,US,41.34204,-74.16792,Kiryas Joel
1852,1,11,202,76,3,0,US,39.34589,-84.5605,Fairfield
1853,1,15,277,125,3,0,US,40.63871,-73.64013,Oceanside
1854,1,15,277,125,3,0,US,40.66871,-73.52707,Bellmore
1855,1,15,277,127,3,0,US,40.42788,-74.41598,East Brunswick
1856,1,15,277,128,3,0,US,40.78843,-74.1332,North Arlington
1857,1,23,384,153,3,0,US,39.41872,-76.2944,Edgewood
1858,1,23,376,153,3,0,US,39.15316,-77.06692,Olney
1859,1,15,277,125,3,0,US,40.65871,-73.64124,Rockville Centre
1860,1,15,277,125,3,0,US,40.74927,-73.64068,Mineola
1861,1,11,202,82,3,0,US,39.51506,-84.39828,Middletown
1862,1,23,380,153,3,0,US,39.00178,-76.68747,Crofton
1863,1,11,202,76,3,0,US,39.43534,-84.20299,Lebanon
1864,1,11,202,81,3,0,US,39.71368,-82.59933,Lancaster
1865,1,12,215,112,3,0,US,35.08449,-106.65114,Albuquerque
1866,1,9,193,24,0,0,US,27.63864,-80.39727,Vero Beach
1867,1,18,312,148,3,0,US,33.6603,-117.99923,Huntington Beach
1868,1,18,312,148,3,0,US,33.78779,-117.85311,Orange
1869,1,11,200,36,0,0,US,38.6245,-90.15094,East Saint Louis
1870,1,15,277,124,3,0,US,40.72816,-74.07764,Jersey City
1871,1,23,382,153,3,0,US,38.61095,-77.33971,Montclair
1872,1,23,378,153,3,0,US,38.73178,-77.4311,Buckhall
1873,2,32,723,226,3,0,ES,41.43073,2.21855,Sant Adrià de Besòs
1874,1,24,393,157,3,0,MX,19.43411,-99.20024,Miguel Hidalgo
1875,2,32,723,231,3,0,ES,41.60797,2.28773,Granollers
1876,2,32,723,231,3,0,ES,41.57481,2.23306,Parets del Vallès
1877,1,24,393,157,3,0,MX,19.35529,-99.06224,Iztapalapa
1878,1,9,194,31,0,0,US,29.58497,-81.20784,Palm Coast
1879,2,28,550,171,3,0,FR,48.86667,2.71667,Lagny-sur-Marne
1880,1,15,279,142,3,0,US,41.13815,-73.54346,North Stamford
1881,2,29,593,184,3,0,IT,45.68532,9.72487,Seriate
1882,2,29,593,184,3,0,IT,45.53763,9.92699,Chiari
1883,2,29,593,184,3,0,IT,45.59665,9.88688,Palazzolo sull'Oglio
1884,1,17,293,148,3,0,US,37.26383,-122.02301,Saratoga
1885,2,26,448,161,3,0,NL,52.234,4.44474,Noordwijk-Binnen
1886,2,26,450,161,3,0,NL,52.2375,4.82639,Uithoorn
1887,1,18,310,148,3,0,US,34.13639,-118.77453,Agoura Hills
1888,2,30,618,184,3,0,GB,51.29652,-0.3338,Leatherhead
